{
  "type": "FeatureCollection",
  "features": [
    {
      "type": "Feature",
      "properties": {
        "quantile": 1,
        "id": 78369931480,
        "name": "Аэроплан",
        "value": 0.9998780933804705,
        "icon": "cafe"
      },
      "geometry": {
        "type": "Point",
        "coordinates": [37.627394, 55.732681]
      }
    },
    {
      "type": "Feature",
      "properties": {
        "quantile": 0.9965986394557823,
        "id": 194520248099,
        "name": "Escapist",
        "value": 0.9997561867609411,
        "icon": "night_club"
      },
      "geometry": {
        "type": "Point",
        "coordinates": [37.645312, 55.754669]
      }
    },
    {
      "type": "Feature",
      "properties": {
        "quantile": 0.9931972789115646,
        "id": 149308522220,
        "name": "Dogma",
        "value": 0.9996342801414116,
        "icon": "night_club"
      },
      "geometry": {
        "type": "Point",
        "coordinates": [37.637397, 55.7549]
      }
    },
    {
      "type": "Feature",
      "properties": {
        "quantile": 0.9897959183673469,
        "id": 238038416297,
        "name": "Сентябрь",
        "value": 0.9995123735218823,
        "icon": "night_club"
      },
      "geometry": {
        "type": "Point",
        "coordinates": [37.647423, 55.758772]
      }
    },
    {
      "type": "Feature",
      "properties": {
        "quantile": 0.9863945578231292,
        "id": 120937492624,
        "name": "Рюмка",
        "value": 0.9993904669023528,
        "icon": "night_club"
      },
      "geometry": {
        "type": "Point",
        "coordinates": [37.63977, 55.765255]
      }
    },
    {
      "type": "Feature",
      "properties": {
        "quantile": 0.9829931972789115,
        "id": 45273873544,
        "name": "The Black Swan",
        "value": 0.9992685602828234,
        "icon": "night_club"
      },
      "geometry": {
        "type": "Point",
        "coordinates": [37.637866, 55.754495]
      }
    },
    {
      "type": "Feature",
      "properties": {
        "quantile": 0.9795918367346939,
        "id": 201166667543,
        "name": "Bloom-n-Brew Factoria",
        "value": 0.9991466536632939,
        "icon": "cafe"
      },
      "geometry": {
        "type": "Point",
        "coordinates": [37.581812, 55.796775]
      }
    },
    {
      "type": "Feature",
      "properties": {
        "quantile": 0.9761904761904762,
        "id": 198739868874,
        "name": "Просвет",
        "value": 0.9990247470437644,
        "icon": "cafe"
      },
      "geometry": {
        "type": "Point",
        "coordinates": [37.596735, 55.775799]
      }
    },
    {
      "type": "Feature",
      "properties": {
        "quantile": 0.9727891156462585,
        "id": 134437810126,
        "name": "Blau",
        "value": 0.998902840424235,
        "icon": "restaurants"
      },
      "geometry": {
        "type": "Point",
        "coordinates": [37.627782, 55.74701]
      }
    },
    {
      "type": "Feature",
      "properties": {
        "quantile": 0.9693877551020408,
        "id": 75382223890,
        "name": "Слёзы Берёзы",
        "value": 0.9987809338047056,
        "icon": "night_club"
      },
      "geometry": {
        "type": "Point",
        "coordinates": [37.677776, 55.77561]
      }
    },
    {
      "type": "Feature",
      "properties": {
        "quantile": 0.9659863945578231,
        "id": 230591967307,
        "name": "6 am Bread Kitchen",
        "value": 0.9986590271851762,
        "icon": "cafe"
      },
      "geometry": {
        "type": "Point",
        "coordinates": [37.641303, 55.737489]
      }
    },
    {
      "type": "Feature",
      "properties": {
        "quantile": 0.9625850340136054,
        "id": 97590830877,
        "name": "Sapiens",
        "value": 0.9985371205656467,
        "icon": "restaurants"
      },
      "geometry": {
        "type": "Point",
        "coordinates": [37.589122, 55.734299]
      }
    },
    {
      "type": "Feature",
      "properties": {
        "quantile": 0.9591836734693877,
        "id": 1156119939,
        "name": "Петрович",
        "value": 0.9984152139461173,
        "icon": "restaurants"
      },
      "geometry": {
        "type": "Point",
        "coordinates": [37.636781, 55.762949]
      }
    },
    {
      "type": "Feature",
      "properties": {
        "quantile": 0.95578231292517,
        "id": 1141756662,
        "name": "Powerhouse",
        "value": 0.9982933073265878,
        "icon": "restaurants"
      },
      "geometry": {
        "type": "Point",
        "coordinates": [37.646162, 55.745759]
      }
    },
    {
      "type": "Feature",
      "properties": {
        "quantile": 0.9523809523809523,
        "id": 126838999452,
        "name": "Punk Fiction",
        "value": 0.9981714007070583,
        "icon": "night_club"
      },
      "geometry": {
        "type": "Point",
        "coordinates": [37.670939, 55.774616]
      }
    },
    {
      "type": "Feature",
      "properties": {
        "quantile": 0.9489795918367347,
        "id": 171625051671,
        "name": "Тото",
        "value": 0.998049494087529,
        "icon": "restaurants"
      },
      "geometry": {
        "type": "Point",
        "coordinates": [37.613951, 55.763711]
      }
    },
    {
      "type": "Feature",
      "properties": {
        "quantile": 0.9455782312925171,
        "id": 97485316407,
        "name": "Эрна",
        "value": 0.9979275874679995,
        "icon": "cafe"
      },
      "geometry": {
        "type": "Point",
        "coordinates": [37.618307, 55.732873]
      }
    },
    {
      "type": "Feature",
      "properties": {
        "quantile": 0.9421768707482994,
        "id": 225309698366,
        "name": "Alpaca",
        "value": 0.9978056808484701,
        "icon": "restaurants"
      },
      "geometry": {
        "type": "Point",
        "coordinates": [37.641465, 55.75939]
      }
    },
    {
      "type": "Feature",
      "properties": {
        "quantile": 0.9387755102040817,
        "id": 74001593149,
        "name": "ABC Coffee Roasters",
        "value": 0.9976837742289406,
        "icon": "cafe"
      },
      "geometry": {
        "type": "Point",
        "coordinates": [37.600787, 55.757149]
      }
    },
    {
      "type": "Feature",
      "properties": {
        "quantile": 0.935374149659864,
        "id": 45467588506,
        "name": "Method Beer & Munchies",
        "value": 0.9975618676094112,
        "icon": "night_club"
      },
      "geometry": {
        "type": "Point",
        "coordinates": [37.659801, 55.741614]
      }
    },
    {
      "type": "Feature",
      "properties": {
        "quantile": 0.9319727891156463,
        "id": 24172390594,
        "name": "from Berlin.",
        "value": 0.9974399609898817,
        "icon": "cafe"
      },
      "geometry": {
        "type": "Point",
        "coordinates": [37.619333, 55.773254]
      }
    },
    {
      "type": "Feature",
      "properties": {
        "quantile": 0.9285714285714286,
        "id": 165667210412,
        "name": "Аксиом Паб",
        "value": 0.9973180543703523,
        "icon": "night_club"
      },
      "geometry": {
        "type": "Point",
        "coordinates": [37.679379, 55.776243]
      }
    },
    {
      "type": "Feature",
      "properties": {
        "quantile": 0.9251700680272109,
        "id": 1270745226,
        "name": "Изя Гриль",
        "value": 0.9971961477508229,
        "icon": "restaurants"
      },
      "geometry": {
        "type": "Point",
        "coordinates": [37.586711, 55.734079]
      }
    },
    {
      "type": "Feature",
      "properties": {
        "quantile": 0.9217687074829932,
        "id": 37098848122,
        "name": "Мичелада",
        "value": 0.9970742411312934,
        "icon": "night_club"
      },
      "geometry": {
        "type": "Point",
        "coordinates": [37.634217, 55.757244]
      }
    },
    {
      "type": "Feature",
      "properties": {
        "quantile": 0.9183673469387755,
        "id": 80377689687,
        "name": "We Cidreria",
        "value": 0.996952334511764,
        "icon": "night_club"
      },
      "geometry": {
        "type": "Point",
        "coordinates": [37.59864, 55.767975]
      }
    },
    {
      "type": "Feature",
      "properties": {
        "quantile": 0.9149659863945578,
        "id": 227575980951,
        "name": "Рихтер",
        "value": 0.9968304278922345,
        "icon": "restaurants"
      },
      "geometry": {
        "type": "Point",
        "coordinates": [37.627966, 55.73779]
      }
    },
    {
      "type": "Feature",
      "properties": {
        "quantile": 0.9115646258503401,
        "id": 54535786666,
        "name": "Guns & Bears",
        "value": 0.9967085212727052,
        "icon": "night_club"
      },
      "geometry": {
        "type": "Point",
        "coordinates": [37.595687, 55.786042]
      }
    },
    {
      "type": "Feature",
      "properties": {
        "quantile": 0.9081632653061225,
        "id": 197099860325,
        "name": "Share House",
        "value": 0.9965866146531757,
        "icon": "night_club"
      },
      "geometry": {
        "type": "Point",
        "coordinates": [37.596818, 55.770864]
      }
    },
    {
      "type": "Feature",
      "properties": {
        "quantile": 0.9047619047619048,
        "id": 109434427876,
        "name": "Flaner",
        "value": 0.9964647080336462,
        "icon": "restaurants"
      },
      "geometry": {
        "type": "Point",
        "coordinates": [37.636602, 55.76243]
      }
    },
    {
      "type": "Feature",
      "properties": {
        "quantile": 0.9013605442176871,
        "id": 181544007639,
        "name": "Underdog",
        "value": 0.9963428014141168,
        "icon": "night_club"
      },
      "geometry": {
        "type": "Point",
        "coordinates": [37.635571, 55.757402]
      }
    },
    {
      "type": "Feature",
      "properties": {
        "quantile": 0.8979591836734694,
        "id": 230993401280,
        "name": "Веладора",
        "value": 0.9962208947945873,
        "icon": "night_club"
      },
      "geometry": {
        "type": "Point",
        "coordinates": [37.639927, 55.758229]
      }
    },
    {
      "type": "Feature",
      "properties": {
        "quantile": 0.8945578231292517,
        "id": 167932399883,
        "name": "Рюмочная мечты",
        "value": 0.9959770815555284,
        "icon": "night_club"
      },
      "geometry": {
        "type": "Point",
        "coordinates": [37.637273, 55.754955]
      }
    },
    {
      "type": "Feature",
      "properties": {
        "quantile": 0.891156462585034,
        "id": 1148302232,
        "name": "Moments",
        "value": 0.9958551749359991,
        "icon": "restaurants"
      },
      "geometry": {
        "type": "Point",
        "coordinates": [37.638888, 55.733441]
      }
    },
    {
      "type": "Feature",
      "properties": {
        "quantile": 0.8877551020408163,
        "id": 201188718035,
        "name": "Rockets",
        "value": 0.9957332683164696,
        "icon": "cafe"
      },
      "geometry": {
        "type": "Point",
        "coordinates": [37.626708, 55.729016]
      }
    },
    {
      "type": "Feature",
      "properties": {
        "quantile": 0.8843537414965986,
        "id": 20652000034,
        "name": "Без названия",
        "value": 0.9956113616969401,
        "icon": "restaurants"
      },
      "geometry": {
        "type": "Point",
        "coordinates": [37.643476, 55.750847]
      }
    },
    {
      "type": "Feature",
      "properties": {
        "quantile": 0.8809523809523809,
        "id": 1055916386,
        "name": "Delicatessen",
        "value": 0.9954894550774107,
        "icon": "night_club"
      },
      "geometry": {
        "type": "Point",
        "coordinates": [37.610892, 55.772606]
      }
    },
    {
      "type": "Feature",
      "properties": {
        "quantile": 0.8775510204081632,
        "id": 144162739050,
        "name": "Mission New Ethic",
        "value": 0.9953675484578812,
        "icon": "night_club"
      },
      "geometry": {
        "type": "Point",
        "coordinates": [37.670753, 55.770508]
      }
    },
    {
      "type": "Feature",
      "properties": {
        "quantile": 0.8741496598639455,
        "id": 203023326980,
        "name": "Верд",
        "value": 0.9952456418383518,
        "icon": "restaurants"
      },
      "geometry": {
        "type": "Point",
        "coordinates": [37.571155, 55.729904]
      }
    },
    {
      "type": "Feature",
      "properties": {
        "quantile": 0.8707482993197279,
        "id": 1078006564,
        "name": "Мартинез",
        "value": 0.9951237352188224,
        "icon": "night_club"
      },
      "geometry": {
        "type": "Point",
        "coordinates": [37.630722, 55.766706]
      }
    },
    {
      "type": "Feature",
      "properties": {
        "quantile": 0.8673469387755102,
        "id": 118277081596,
        "name": "If",
        "value": 0.995001828599293,
        "icon": "restaurants"
      },
      "geometry": {
        "type": "Point",
        "coordinates": [37.645355, 55.754786]
      }
    },
    {
      "type": "Feature",
      "properties": {
        "quantile": 0.8639455782312925,
        "id": 157998496135,
        "name": "Ycp",
        "value": 0.9948799219797635,
        "icon": "cafe"
      },
      "geometry": {
        "type": "Point",
        "coordinates": [37.633405, 55.763213]
      }
    },
    {
      "type": "Feature",
      "properties": {
        "quantile": 0.8605442176870748,
        "id": 240105645545,
        "name": "La Virgen",
        "value": 0.9947580153602341,
        "icon": "cafe"
      },
      "geometry": {
        "type": "Point",
        "coordinates": [37.629511, 55.758605]
      }
    },
    {
      "type": "Feature",
      "properties": {
        "quantile": 0.8571428571428571,
        "id": 192970555781,
        "name": "Kiosk 1936",
        "value": 0.9946361087407046,
        "icon": "cafe"
      },
      "geometry": {
        "type": "Point",
        "coordinates": [37.64268, 55.761887]
      }
    },
    {
      "type": "Feature",
      "properties": {
        "quantile": 0.8537414965986394,
        "id": 9719002102,
        "name": "2046",
        "value": 0.9945142021211751,
        "icon": "cafe"
      },
      "geometry": {
        "type": "Point",
        "coordinates": [37.583738, 55.740755]
      }
    },
    {
      "type": "Feature",
      "properties": {
        "quantile": 0.8503401360544217,
        "id": 92357967874,
        "name": "Flør",
        "value": 0.9943922955016458,
        "icon": "restaurants"
      },
      "geometry": {
        "type": "Point",
        "coordinates": [37.647111, 55.760538]
      }
    },
    {
      "type": "Feature",
      "properties": {
        "quantile": 0.8469387755102041,
        "id": 115860848898,
        "name": "Джинститут",
        "value": 0.9942703888821163,
        "icon": "night_club"
      },
      "geometry": {
        "type": "Point",
        "coordinates": [37.637336, 55.754066]
      }
    },
    {
      "type": "Feature",
      "properties": {
        "quantile": 0.8435374149659864,
        "id": 83296986872,
        "name": "13 Градусов",
        "value": 0.9941484822625869,
        "icon": "night_club"
      },
      "geometry": {
        "type": "Point",
        "coordinates": [37.597027, 55.772356]
      }
    },
    {
      "type": "Feature",
      "properties": {
        "quantile": 0.8401360544217688,
        "id": 218776054866,
        "name": "Аренда",
        "value": 0.9940265756430574,
        "icon": "night_club"
      },
      "geometry": {
        "type": "Point",
        "coordinates": [37.644835, 55.75508]
      }
    },
    {
      "type": "Feature",
      "properties": {
        "quantile": 0.8367346938775511,
        "id": 199059190310,
        "name": "Вода",
        "value": 0.993904669023528,
        "icon": "night_club"
      },
      "geometry": {
        "type": "Point",
        "coordinates": [37.61579, 55.764737]
      }
    },
    {
      "type": "Feature",
      "properties": {
        "quantile": 0.8333333333333334,
        "id": 121008180091,
        "name": "Restaurant by Deep Fried Friends",
        "value": 0.9937827624039985,
        "icon": "restaurants"
      },
      "geometry": {
        "type": "Point",
        "coordinates": [37.647086, 55.746384]
      }
    },
    {
      "type": "Feature",
      "properties": {
        "quantile": 0.8299319727891157,
        "id": 179700634046,
        "name": "Бар Журавли",
        "value": 0.993660855784469,
        "icon": "night_club"
      },
      "geometry": {
        "type": "Point",
        "coordinates": [37.615765, 55.762941]
      }
    },
    {
      "type": "Feature",
      "properties": {
        "quantile": 0.826530612244898,
        "id": 96503031608,
        "name": "Салют",
        "value": 0.9935389491649397,
        "icon": "cafe"
      },
      "geometry": {
        "type": "Point",
        "coordinates": [37.612524, 55.766975]
      }
    },
    {
      "type": "Feature",
      "properties": {
        "quantile": 0.8231292517006803,
        "id": 218812020725,
        "name": "Полдень",
        "value": 0.9934170425454102,
        "icon": "cafe"
      },
      "geometry": {
        "type": "Point",
        "coordinates": [37.647207, 55.760495]
      }
    },
    {
      "type": "Feature",
      "properties": {
        "quantile": 0.8197278911564626,
        "id": 45416241382,
        "name": "Эрик Рыжий",
        "value": 0.9932951359258808,
        "icon": "night_club"
      },
      "geometry": {
        "type": "Point",
        "coordinates": [37.5885, 55.748691]
      }
    },
    {
      "type": "Feature",
      "properties": {
        "quantile": 0.8163265306122449,
        "id": 211419336068,
        "name": "Столярка",
        "value": 0.9931732293063513,
        "icon": "night_club"
      },
      "geometry": {
        "type": "Point",
        "coordinates": [37.705984, 55.784745]
      }
    },
    {
      "type": "Feature",
      "properties": {
        "quantile": 0.8129251700680272,
        "id": 199519525592,
        "name": "Right Hops",
        "value": 0.993051322686822,
        "icon": "night_club"
      },
      "geometry": {
        "type": "Point",
        "coordinates": [37.568285, 55.764516]
      }
    },
    {
      "type": "Feature",
      "properties": {
        "quantile": 0.8095238095238095,
        "id": 9766122075,
        "name": "Bambule",
        "value": 0.9929294160672925,
        "icon": "night_club"
      },
      "geometry": {
        "type": "Point",
        "coordinates": [37.637712, 55.754432]
      }
    },
    {
      "type": "Feature",
      "properties": {
        "quantile": 0.8061224489795918,
        "id": 189792261100,
        "name": "Rudi Italian bistro",
        "value": 0.992807509447763,
        "icon": "restaurants"
      },
      "geometry": {
        "type": "Point",
        "coordinates": [37.599177, 55.78298]
      }
    },
    {
      "type": "Feature",
      "properties": {
        "quantile": 0.8027210884353742,
        "id": 61620963690,
        "name": "Сионист",
        "value": 0.9926856028282336,
        "icon": "night_club"
      },
      "geometry": {
        "type": "Point",
        "coordinates": [37.639122, 55.757865]
      }
    },
    {
      "type": "Feature",
      "properties": {
        "quantile": 0.7993197278911565,
        "id": 32925348782,
        "name": "Butler The Japanese Bar",
        "value": 0.9925636962087041,
        "icon": "night_club"
      },
      "geometry": {
        "type": "Point",
        "coordinates": [37.632475, 55.769757]
      }
    },
    {
      "type": "Feature",
      "properties": {
        "quantile": 0.7959183673469388,
        "id": 52616228699,
        "name": "Кнорозов бар",
        "value": 0.9924417895891747,
        "icon": "night_club"
      },
      "geometry": {
        "type": "Point",
        "coordinates": [37.627663, 55.733008]
      }
    },
    {
      "type": "Feature",
      "properties": {
        "quantile": 0.7925170068027211,
        "id": 72362343704,
        "name": "Camorra",
        "value": 0.9923198829696452,
        "icon": "fast_food"
      },
      "geometry": {
        "type": "Point",
        "coordinates": [37.637075, 55.755046]
      }
    },
    {
      "type": "Feature",
      "properties": {
        "quantile": 0.7891156462585034,
        "id": 121926463456,
        "name": "Фракция",
        "value": 0.9921979763501159,
        "icon": "night_club"
      },
      "geometry": {
        "type": "Point",
        "coordinates": [37.625878, 55.7006]
      }
    },
    {
      "type": "Feature",
      "properties": {
        "quantile": 0.7857142857142857,
        "id": 244028324414,
        "name": "Le carré",
        "value": 0.9920760697305864,
        "icon": "restaurants"
      },
      "geometry": {
        "type": "Point",
        "coordinates": [37.642258, 55.737157]
      }
    },
    {
      "type": "Feature",
      "properties": {
        "quantile": 0.782312925170068,
        "id": 11442480091,
        "name": "Интеллигенция",
        "value": 0.9919541631110569,
        "icon": "restaurants"
      },
      "geometry": {
        "type": "Point",
        "coordinates": [37.661624, 55.743792]
      }
    },
    {
      "type": "Feature",
      "properties": {
        "quantile": 0.7789115646258503,
        "id": 11618800196,
        "name": "Tacobar",
        "value": 0.9918322564915275,
        "icon": "restaurants"
      },
      "geometry": {
        "type": "Point",
        "coordinates": [37.627607, 55.732966]
      }
    },
    {
      "type": "Feature",
      "properties": {
        "quantile": 0.7755102040816326,
        "id": 64863968428,
        "name": "Скворец!",
        "value": 0.991710349871998,
        "icon": "cafe"
      },
      "geometry": {
        "type": "Point",
        "coordinates": [37.597438, 55.759429]
      }
    },
    {
      "type": "Feature",
      "properties": {
        "quantile": 0.7721088435374149,
        "id": 56708979041,
        "name": "Rébellion",
        "value": 0.9915884432524686,
        "icon": "cafe"
      },
      "geometry": {
        "type": "Point",
        "coordinates": [37.616059, 55.767669]
      }
    },
    {
      "type": "Feature",
      "properties": {
        "quantile": 0.7687074829931972,
        "id": 52847873274,
        "name": "Shortlist Books and Spirits",
        "value": 0.9914665366329392,
        "icon": "night_club"
      },
      "geometry": {
        "type": "Point",
        "coordinates": [37.616177, 55.765563]
      }
    },
    {
      "type": "Feature",
      "properties": {
        "quantile": 0.7653061224489796,
        "id": 57284235758,
        "name": "Винфак",
        "value": 0.9913446300134098,
        "icon": "night_club"
      },
      "geometry": {
        "type": "Point",
        "coordinates": [37.645379, 55.755087]
      }
    },
    {
      "type": "Feature",
      "properties": {
        "quantile": 0.7619047619047619,
        "id": 29009540225,
        "name": "Скрепка",
        "value": 0.9912227233938803,
        "icon": "cafe"
      },
      "geometry": {
        "type": "Point",
        "coordinates": [37.639697, 55.758903]
      }
    },
    {
      "type": "Feature",
      "properties": {
        "quantile": 0.7585034013605442,
        "id": 4251683323,
        "name": "I Like Grill",
        "value": 0.9911008167743508,
        "icon": "restaurants"
      },
      "geometry": {
        "type": "Point",
        "coordinates": [37.58524, 55.735131]
      }
    },
    {
      "type": "Feature",
      "properties": {
        "quantile": 0.7551020408163265,
        "id": 1222085109,
        "name": "Paulaner",
        "value": 0.9909789101548214,
        "icon": "restaurants"
      },
      "geometry": {
        "type": "Point",
        "coordinates": [37.641909, 55.732837]
      }
    },
    {
      "type": "Feature",
      "properties": {
        "quantile": 0.7517006802721088,
        "id": 41570308772,
        "name": "Voлчья Sтая",
        "value": 0.9908570035352919,
        "icon": "night_club"
      },
      "geometry": {
        "type": "Point",
        "coordinates": [37.64, 55.766188]
      }
    },
    {
      "type": "Feature",
      "properties": {
        "quantile": 0.7482993197278912,
        "id": 54194208973,
        "name": "Pivbar",
        "value": 0.9907350969157626,
        "icon": "night_club"
      },
      "geometry": {
        "type": "Point",
        "coordinates": [37.564105, 55.762243]
      }
    },
    {
      "type": "Feature",
      "properties": {
        "quantile": 0.7448979591836735,
        "id": 71048418970,
        "name": "Косой Маркс",
        "value": 0.9906131902962331,
        "icon": "night_club"
      },
      "geometry": {
        "type": "Point",
        "coordinates": [37.656132, 55.74162]
      }
    },
    {
      "type": "Feature",
      "properties": {
        "quantile": 0.7414965986394558,
        "id": 56736220207,
        "name": "Голова",
        "value": 0.9904912836767037,
        "icon": "night_club"
      },
      "geometry": {
        "type": "Point",
        "coordinates": [37.624924, 55.769325]
      }
    },
    {
      "type": "Feature",
      "properties": {
        "quantile": 0.7380952380952381,
        "id": 80592697325,
        "name": "Caffe Mandy's",
        "value": 0.9903693770571742,
        "icon": "restaurants"
      },
      "geometry": {
        "type": "Point",
        "coordinates": [37.646649, 55.759914]
      }
    },
    {
      "type": "Feature",
      "properties": {
        "quantile": 0.7346938775510204,
        "id": 231535385825,
        "name": "Skuratov Coffee",
        "value": 0.9902474704376447,
        "icon": "cafe"
      },
      "geometry": {
        "type": "Point",
        "coordinates": [37.592779, 55.774875]
      }
    },
    {
      "type": "Feature",
      "properties": {
        "quantile": 0.7312925170068028,
        "id": 89444132633,
        "name": "Touch Chef’s Place & Bar",
        "value": 0.9901255638181153,
        "icon": "restaurants"
      },
      "geometry": {
        "type": "Point",
        "coordinates": [37.628269, 55.74648]
      }
    },
    {
      "type": "Feature",
      "properties": {
        "quantile": 0.7278911564625851,
        "id": 1267978688,
        "name": "Suzuran",
        "value": 0.9900036571985859,
        "icon": "night_club"
      },
      "geometry": {
        "type": "Point",
        "coordinates": [37.639529, 55.760316]
      }
    },
    {
      "type": "Feature",
      "properties": {
        "quantile": 0.7244897959183674,
        "id": 1310725286,
        "name": "Mitzva Bar",
        "value": 0.9898817505790565,
        "icon": "night_club"
      },
      "geometry": {
        "type": "Point",
        "coordinates": [37.627163, 55.745565]
      }
    },
    {
      "type": "Feature",
      "properties": {
        "quantile": 0.7210884353741497,
        "id": 65194335013,
        "name": "Los Bandidos",
        "value": 0.989759843959527,
        "icon": "night_club"
      },
      "geometry": {
        "type": "Point",
        "coordinates": [37.632569, 55.757266]
      }
    },
    {
      "type": "Feature",
      "properties": {
        "quantile": 0.717687074829932,
        "id": 85895980733,
        "name": "Птица-Синица",
        "value": 0.9896379373399976,
        "icon": "night_club"
      },
      "geometry": {
        "type": "Point",
        "coordinates": [37.635254, 55.756385]
      }
    },
    {
      "type": "Feature",
      "properties": {
        "quantile": 0.7142857142857143,
        "id": 1344228169,
        "name": "Rule Taproom",
        "value": 0.9895160307204681,
        "icon": "night_club"
      },
      "geometry": {
        "type": "Point",
        "coordinates": [37.607041, 55.751302]
      }
    },
    {
      "type": "Feature",
      "properties": {
        "quantile": 0.7108843537414966,
        "id": 1049384634,
        "name": "Джон Донн",
        "value": 0.9893941241009386,
        "icon": "night_club"
      },
      "geometry": {
        "type": "Point",
        "coordinates": [37.600417, 55.755462]
      }
    },
    {
      "type": "Feature",
      "properties": {
        "quantile": 0.7074829931972789,
        "id": 82590371825,
        "name": "Аэроплан",
        "value": 0.9892722174814093,
        "icon": "cafe"
      },
      "geometry": {
        "type": "Point",
        "coordinates": [37.640048, 55.737307]
      }
    },
    {
      "type": "Feature",
      "properties": {
        "quantile": 0.7040816326530612,
        "id": 63291389944,
        "name": "J'pan",
        "value": 0.9891503108618798,
        "icon": "restaurants"
      },
      "geometry": {
        "type": "Point",
        "coordinates": [37.634259, 55.762143]
      }
    },
    {
      "type": "Feature",
      "properties": {
        "quantile": 0.7006802721088435,
        "id": 10033461831,
        "name": "Finch",
        "value": 0.9890284042423504,
        "icon": "cafe"
      },
      "geometry": {
        "type": "Point",
        "coordinates": [37.625698, 55.728842]
      }
    },
    {
      "type": "Feature",
      "properties": {
        "quantile": 0.6972789115646258,
        "id": 1788984433,
        "name": "I Like Wine 2.0",
        "value": 0.9889064976228209,
        "icon": "restaurants"
      },
      "geometry": {
        "type": "Point",
        "coordinates": [37.586566, 55.735806]
      }
    },
    {
      "type": "Feature",
      "properties": {
        "quantile": 0.6938775510204082,
        "id": 26897361657,
        "name": "Менталитет",
        "value": 0.9887845910032915,
        "icon": "restaurants"
      },
      "geometry": {
        "type": "Point",
        "coordinates": [37.636848, 55.771843]
      }
    },
    {
      "type": "Feature",
      "properties": {
        "quantile": 0.6904761904761905,
        "id": 107802168711,
        "name": "Циники",
        "value": 0.988662684383762,
        "icon": "restaurants"
      },
      "geometry": {
        "type": "Point",
        "coordinates": [37.59953, 55.762591]
      }
    },
    {
      "type": "Feature",
      "properties": {
        "quantile": 0.6870748299319728,
        "id": 52628070422,
        "name": "Salden’s Taphouse",
        "value": 0.9885407777642325,
        "icon": "night_club"
      },
      "geometry": {
        "type": "Point",
        "coordinates": [37.626934, 55.745513]
      }
    },
    {
      "type": "Feature",
      "properties": {
        "quantile": 0.6836734693877551,
        "id": 1770249382,
        "name": "Brasserie Lambic",
        "value": 0.9884188711447032,
        "icon": "restaurants"
      },
      "geometry": {
        "type": "Point",
        "coordinates": [37.62436, 55.731505]
      }
    },
    {
      "type": "Feature",
      "properties": {
        "quantile": 0.6802721088435374,
        "id": 1003195999,
        "name": "Джон Донн",
        "value": 0.9882969645251737,
        "icon": "night_club"
      },
      "geometry": {
        "type": "Point",
        "coordinates": [37.652357, 55.743289]
      }
    },
    {
      "type": "Feature",
      "properties": {
        "quantile": 0.6768707482993197,
        "id": 243088808182,
        "name": "Алко-буфет Шашлычная",
        "value": 0.9881750579056443,
        "icon": "night_club"
      },
      "geometry": {
        "type": "Point",
        "coordinates": [37.632586, 55.771652]
      }
    },
    {
      "type": "Feature",
      "properties": {
        "quantile": 0.673469387755102,
        "id": 6136478475,
        "name": "Dizengof99",
        "value": 0.9880531512861148,
        "icon": "cafe"
      },
      "geometry": {
        "type": "Point",
        "coordinates": [37.656287, 55.784654]
      }
    },
    {
      "type": "Feature",
      "properties": {
        "quantile": 0.6700680272108843,
        "id": 148125828288,
        "name": "Широкую на широкую",
        "value": 0.9879312446665854,
        "icon": "night_club"
      },
      "geometry": {
        "type": "Point",
        "coordinates": [37.636167, 55.761526]
      }
    },
    {
      "type": "Feature",
      "properties": {
        "quantile": 0.6666666666666666,
        "id": 30523839029,
        "name": "Радио Грин Хаус",
        "value": 0.987809338047056,
        "icon": "restaurants"
      },
      "geometry": {
        "type": "Point",
        "coordinates": [37.683548, 55.763991]
      }
    },
    {
      "type": "Feature",
      "properties": {
        "quantile": 0.6632653061224489,
        "id": 216318179518,
        "name": "Ra'men",
        "value": 0.9876874314275265,
        "icon": "restaurants"
      },
      "geometry": {
        "type": "Point",
        "coordinates": [37.61954, 55.772151]
      }
    },
    {
      "type": "Feature",
      "properties": {
        "quantile": 0.6598639455782312,
        "id": 198838256677,
        "name": "Antiпa",
        "value": 0.9875655248079971,
        "icon": "cafe"
      },
      "geometry": {
        "type": "Point",
        "coordinates": [37.605615, 55.747765]
      }
    },
    {
      "type": "Feature",
      "properties": {
        "quantile": 0.6564625850340136,
        "id": 123697358879,
        "name": "Parka",
        "value": 0.9874436181884676,
        "icon": "night_club"
      },
      "geometry": {
        "type": "Point",
        "coordinates": [37.628398, 55.741423]
      }
    },
    {
      "type": "Feature",
      "properties": {
        "quantile": 0.6530612244897959,
        "id": 147745010375,
        "name": "Рюмочная Свобода",
        "value": 0.9873217115689382,
        "icon": "night_club"
      },
      "geometry": {
        "type": "Point",
        "coordinates": [37.637417, 55.762525]
      }
    },
    {
      "type": "Feature",
      "properties": {
        "quantile": 0.6496598639455783,
        "id": 158606513384,
        "name": "Красная Роза",
        "value": 0.9871998049494087,
        "icon": "restaurants"
      },
      "geometry": {
        "type": "Point",
        "coordinates": [37.588359, 55.734707]
      }
    },
    {
      "type": "Feature",
      "properties": {
        "quantile": 0.6462585034013606,
        "id": 188515485499,
        "name": "Км20",
        "value": 0.9870778983298794,
        "icon": "restaurants"
      },
      "geometry": {
        "type": "Point",
        "coordinates": [37.611901, 55.762006]
      }
    },
    {
      "type": "Feature",
      "properties": {
        "quantile": 0.6428571428571429,
        "id": 110581812780,
        "name": "Chainaya",
        "value": 0.9869559917103499,
        "icon": "night_club"
      },
      "geometry": {
        "type": "Point",
        "coordinates": [37.585143, 55.776088]
      }
    },
    {
      "type": "Feature",
      "properties": {
        "quantile": 0.6394557823129252,
        "id": 93319198300,
        "name": "Izumi",
        "value": 0.9868340850908204,
        "icon": "restaurants"
      },
      "geometry": {
        "type": "Point",
        "coordinates": [37.64011, 55.766246]
      }
    },
    {
      "type": "Feature",
      "properties": {
        "quantile": 0.6360544217687075,
        "id": 22577398171,
        "name": "Yauza",
        "value": 0.986712178471291,
        "icon": "restaurants"
      },
      "geometry": {
        "type": "Point",
        "coordinates": [37.644703, 55.751536]
      }
    },
    {
      "type": "Feature",
      "properties": {
        "quantile": 0.6326530612244898,
        "id": 64353883033,
        "name": "Мотыга",
        "value": 0.9865902718517615,
        "icon": "night_club"
      },
      "geometry": {
        "type": "Point",
        "coordinates": [37.670403, 55.774342]
      }
    },
    {
      "type": "Feature",
      "properties": {
        "quantile": 0.6292517006802721,
        "id": 1086227774,
        "name": "Kefi",
        "value": 0.9864683652322321,
        "icon": "restaurants"
      },
      "geometry": {
        "type": "Point",
        "coordinates": [37.593335, 55.74042]
      }
    },
    {
      "type": "Feature",
      "properties": {
        "quantile": 0.6258503401360545,
        "id": 1780621497,
        "name": "Винный базар",
        "value": 0.9863464586127026,
        "icon": "night_club"
      },
      "geometry": {
        "type": "Point",
        "coordinates": [37.600383, 55.755584]
      }
    },
    {
      "type": "Feature",
      "properties": {
        "quantile": 0.6224489795918368,
        "id": 1178045848,
        "name": "Lumberjack",
        "value": 0.9862245519931733,
        "icon": "night_club"
      },
      "geometry": {
        "type": "Point",
        "coordinates": [37.63522, 55.756304]
      }
    },
    {
      "type": "Feature",
      "properties": {
        "quantile": 0.6190476190476191,
        "id": 37812045696,
        "name": "Beer Harbor",
        "value": 0.9861026453736438,
        "icon": "night_club"
      },
      "geometry": {
        "type": "Point",
        "coordinates": [37.647097, 55.759671]
      }
    },
    {
      "type": "Feature",
      "properties": {
        "quantile": 0.6156462585034014,
        "id": 4383540212,
        "name": "Ривьера",
        "value": 0.9859807387541143,
        "icon": "restaurants"
      },
      "geometry": {
        "type": "Point",
        "coordinates": [37.578165, 55.700582]
      }
    },
    {
      "type": "Feature",
      "properties": {
        "quantile": 0.6122448979591837,
        "id": 123387734060,
        "name": "Петров и Васечка",
        "value": 0.9858588321345849,
        "icon": "night_club"
      },
      "geometry": {
        "type": "Point",
        "coordinates": [37.622369, 55.770989]
      }
    },
    {
      "type": "Feature",
      "properties": {
        "quantile": 0.608843537414966,
        "id": 1089038717,
        "name": "El Asador",
        "value": 0.9857369255150554,
        "icon": "restaurants"
      },
      "geometry": {
        "type": "Point",
        "coordinates": [37.624531, 55.734997]
      }
    },
    {
      "type": "Feature",
      "properties": {
        "quantile": 0.6054421768707483,
        "id": 189308512047,
        "name": "Сюр",
        "value": 0.985615018895526,
        "icon": "cafe"
      },
      "geometry": {
        "type": "Point",
        "coordinates": [37.64279, 55.754736]
      }
    },
    {
      "type": "Feature",
      "properties": {
        "quantile": 0.6020408163265306,
        "id": 1051904212,
        "name": "Кофемания",
        "value": 0.9854931122759966,
        "icon": "restaurants"
      },
      "geometry": {
        "type": "Point",
        "coordinates": [37.642786, 55.734735]
      }
    },
    {
      "type": "Feature",
      "properties": {
        "quantile": 0.5986394557823129,
        "id": 193362385770,
        "name": "15 Kitchen+Bar",
        "value": 0.9853712056564672,
        "icon": "restaurants"
      },
      "geometry": {
        "type": "Point",
        "coordinates": [37.600766, 55.741854]
      }
    },
    {
      "type": "Feature",
      "properties": {
        "quantile": 0.5952380952380952,
        "id": 113906005343,
        "name": "Pravda Italia",
        "value": 0.9852492990369377,
        "icon": "restaurants"
      },
      "geometry": {
        "type": "Point",
        "coordinates": [37.589129, 55.734191]
      }
    },
    {
      "type": "Feature",
      "properties": {
        "quantile": 0.5918367346938775,
        "id": 49471231621,
        "name": "Прогресс",
        "value": 0.9851273924174082,
        "icon": "night_club"
      },
      "geometry": {
        "type": "Point",
        "coordinates": [37.570232, 55.771367]
      }
    },
    {
      "type": "Feature",
      "properties": {
        "quantile": 0.5884353741496599,
        "id": 1683518098,
        "name": "Винный базар",
        "value": 0.9850054857978788,
        "icon": "night_club"
      },
      "geometry": {
        "type": "Point",
        "coordinates": [37.590329, 55.731454]
      }
    },
    {
      "type": "Feature",
      "properties": {
        "quantile": 0.5850340136054422,
        "id": 1058448426,
        "name": "Стрелка",
        "value": 0.9848835791783493,
        "icon": "night_club"
      },
      "geometry": {
        "type": "Point",
        "coordinates": [37.609307, 55.742451]
      }
    },
    {
      "type": "Feature",
      "properties": {
        "quantile": 0.5816326530612245,
        "id": 55829012209,
        "name": "Subzero",
        "value": 0.98476167255882,
        "icon": "restaurants"
      },
      "geometry": {
        "type": "Point",
        "coordinates": [37.614875, 55.76802]
      }
    },
    {
      "type": "Feature",
      "properties": {
        "quantile": 0.5782312925170068,
        "id": 195747345804,
        "name": "Алёша и Графин",
        "value": 0.9846397659392905,
        "icon": "night_club"
      },
      "geometry": {
        "type": "Point",
        "coordinates": [37.651968, 55.743431]
      }
    },
    {
      "type": "Feature",
      "properties": {
        "quantile": 0.5748299319727891,
        "id": 186010982061,
        "name": "Soma",
        "value": 0.9845178593197611,
        "icon": "restaurants"
      },
      "geometry": {
        "type": "Point",
        "coordinates": [37.620302, 55.766954]
      }
    },
    {
      "type": "Feature",
      "properties": {
        "quantile": 0.5714285714285714,
        "id": 115736401897,
        "name": "Галки",
        "value": 0.9843959527002316,
        "icon": "restaurants"
      },
      "geometry": {
        "type": "Point",
        "coordinates": [37.608719, 55.764844]
      }
    },
    {
      "type": "Feature",
      "properties": {
        "quantile": 0.5680272108843537,
        "id": 184070299913,
        "name": "Dictatura Æstetica",
        "value": 0.9842740460807022,
        "icon": "night_club"
      },
      "geometry": {
        "type": "Point",
        "coordinates": [37.60881, 55.740528]
      }
    },
    {
      "type": "Feature",
      "properties": {
        "quantile": 0.564625850340136,
        "id": 1042732786,
        "name": "Олдскул Паб",
        "value": 0.9841521394611727,
        "icon": "night_club"
      },
      "geometry": {
        "type": "Point",
        "coordinates": [37.627119, 55.756449]
      }
    },
    {
      "type": "Feature",
      "properties": {
        "quantile": 0.5612244897959183,
        "id": 132050504153,
        "name": "Kalabasa",
        "value": 0.9840302328416433,
        "icon": "cafe"
      },
      "geometry": {
        "type": "Point",
        "coordinates": [37.67978, 55.762532]
      }
    },
    {
      "type": "Feature",
      "properties": {
        "quantile": 0.5578231292517006,
        "id": 66081668718,
        "name": "Траппист",
        "value": 0.9839083262221139,
        "icon": "night_club"
      },
      "geometry": {
        "type": "Point",
        "coordinates": [37.626876, 55.756708]
      }
    },
    {
      "type": "Feature",
      "properties": {
        "quantile": 0.5544217687074829,
        "id": 242469143795,
        "name": "Mamie",
        "value": 0.9837864196025844,
        "icon": "restaurants"
      },
      "geometry": {
        "type": "Point",
        "coordinates": [37.605364, 55.756771]
      }
    },
    {
      "type": "Feature",
      "properties": {
        "quantile": 0.5510204081632653,
        "id": 78190811991,
        "name": "Park 47",
        "value": 0.983664512983055,
        "icon": "cafe"
      },
      "geometry": {
        "type": "Point",
        "coordinates": [37.544171, 55.666329]
      }
    },
    {
      "type": "Feature",
      "properties": {
        "quantile": 0.5476190476190477,
        "id": 139051402869,
        "name": "Фантазёры Бистро",
        "value": 0.9835426063635255,
        "icon": "cafe"
      },
      "geometry": {
        "type": "Point",
        "coordinates": [37.557805, 55.694531]
      }
    },
    {
      "type": "Feature",
      "properties": {
        "quantile": 0.54421768707483,
        "id": 1705556639,
        "name": "Connolly Station",
        "value": 0.9834206997439962,
        "icon": "night_club"
      },
      "geometry": {
        "type": "Point",
        "coordinates": [37.612613, 55.762232]
      }
    },
    {
      "type": "Feature",
      "properties": {
        "quantile": 0.5408163265306123,
        "id": 15009699164,
        "name": "Ra'men",
        "value": 0.9832987931244667,
        "icon": "restaurants"
      },
      "geometry": {
        "type": "Point",
        "coordinates": [37.665294, 55.755241]
      }
    },
    {
      "type": "Feature",
      "properties": {
        "quantile": 0.5374149659863946,
        "id": 145236306861,
        "name": "Номер 15",
        "value": 0.9831768865049372,
        "icon": "night_club"
      },
      "geometry": {
        "type": "Point",
        "coordinates": [37.63188, 55.769157]
      }
    },
    {
      "type": "Feature",
      "properties": {
        "quantile": 0.5340136054421769,
        "id": 34276684304,
        "name": "The Left Bank Pub",
        "value": 0.9830549798854078,
        "icon": "night_club"
      },
      "geometry": {
        "type": "Point",
        "coordinates": [37.633592, 55.757775]
      }
    },
    {
      "type": "Feature",
      "properties": {
        "quantile": 0.5306122448979592,
        "id": 39800533834,
        "name": "Pivbar",
        "value": 0.9829330732658783,
        "icon": "night_club"
      },
      "geometry": {
        "type": "Point",
        "coordinates": [37.597194, 55.769975]
      }
    },
    {
      "type": "Feature",
      "properties": {
        "quantile": 0.5272108843537415,
        "id": 200805773509,
        "name": "Blanc",
        "value": 0.9828111666463489,
        "icon": "restaurants"
      },
      "geometry": {
        "type": "Point",
        "coordinates": [37.643204, 55.755949]
      }
    },
    {
      "type": "Feature",
      "properties": {
        "quantile": 0.5238095238095238,
        "id": 116267510410,
        "name": "Folk",
        "value": 0.9826892600268194,
        "icon": "restaurants"
      },
      "geometry": {
        "type": "Point",
        "coordinates": [37.623019, 55.768005]
      }
    },
    {
      "type": "Feature",
      "properties": {
        "quantile": 0.5204081632653061,
        "id": 83999551334,
        "name": "Бьёрн",
        "value": 0.9825673534072901,
        "icon": "restaurants"
      },
      "geometry": {
        "type": "Point",
        "coordinates": [37.626913, 55.745536]
      }
    },
    {
      "type": "Feature",
      "properties": {
        "quantile": 0.5170068027210885,
        "id": 63055610828,
        "name": "Стейк Хаус Бутчер",
        "value": 0.9824454467877606,
        "icon": "restaurants"
      },
      "geometry": {
        "type": "Point",
        "coordinates": [37.640805, 55.736038]
      }
    },
    {
      "type": "Feature",
      "properties": {
        "quantile": 0.5136054421768708,
        "id": 110563584647,
        "name": "Клуб",
        "value": 0.9822016335487017,
        "icon": "night_club"
      },
      "geometry": {
        "type": "Point",
        "coordinates": [37.646147, 55.757667]
      }
    },
    {
      "type": "Feature",
      "properties": {
        "quantile": 0.5102040816326531,
        "id": 153157302481,
        "name": "Охотка",
        "value": 0.9820797269291722,
        "icon": "restaurants"
      },
      "geometry": {
        "type": "Point",
        "coordinates": [37.632597, 55.771338]
      }
    },
    {
      "type": "Feature",
      "properties": {
        "quantile": 0.5068027210884354,
        "id": 68300997210,
        "name": "Ладо",
        "value": 0.9819578203096428,
        "icon": "restaurants"
      },
      "geometry": {
        "type": "Point",
        "coordinates": [37.63729, 55.762779]
      }
    },
    {
      "type": "Feature",
      "properties": {
        "quantile": 0.5034013605442177,
        "id": 116002338995,
        "name": "Узоры",
        "value": 0.9818359136901134,
        "icon": "restaurants"
      },
      "geometry": {
        "type": "Point",
        "coordinates": [37.568056, 55.754792]
      }
    },
    {
      "type": "Feature",
      "properties": {
        "quantile": 0.5,
        "id": 1034559506,
        "name": "El Gaucho",
        "value": 0.981714007070584,
        "icon": "restaurants"
      },
      "geometry": {
        "type": "Point",
        "coordinates": [37.639308, 55.732774]
      }
    },
    {
      "type": "Feature",
      "properties": {
        "quantile": 0.4965986394557823,
        "id": 1285093850,
        "name": "Nude",
        "value": 0.9815921004510545,
        "icon": "cafe"
      },
      "geometry": {
        "type": "Point",
        "coordinates": [37.592908, 55.761844]
      }
    },
    {
      "type": "Feature",
      "properties": {
        "quantile": 0.4931972789115646,
        "id": 1561323338,
        "name": "Table",
        "value": 0.981470193831525,
        "icon": "cafe"
      },
      "geometry": {
        "type": "Point",
        "coordinates": [37.591931, 55.781036]
      }
    },
    {
      "type": "Feature",
      "properties": {
        "quantile": 0.4897959183673469,
        "id": 1702037787,
        "name": "Па-Паэлья",
        "value": 0.9813482872119956,
        "icon": "restaurants"
      },
      "geometry": {
        "type": "Point",
        "coordinates": [37.635026, 55.762099]
      }
    },
    {
      "type": "Feature",
      "properties": {
        "quantile": 0.48639455782312924,
        "id": 219411207022,
        "name": "Balance",
        "value": 0.9812263805924661,
        "icon": "restaurants"
      },
      "geometry": {
        "type": "Point",
        "coordinates": [37.584747, 55.735469]
      }
    },
    {
      "type": "Feature",
      "properties": {
        "quantile": 0.48299319727891155,
        "id": 53914746201,
        "name": "Brooms",
        "value": 0.9811044739729368,
        "icon": "night_club"
      },
      "geometry": {
        "type": "Point",
        "coordinates": [37.655625, 55.742153]
      }
    },
    {
      "type": "Feature",
      "properties": {
        "quantile": 0.47959183673469385,
        "id": 107350315360,
        "name": "Gentle",
        "value": 0.9809825673534073,
        "icon": "restaurants"
      },
      "geometry": {
        "type": "Point",
        "coordinates": [37.598124, 55.758326]
      }
    },
    {
      "type": "Feature",
      "properties": {
        "quantile": 0.47619047619047616,
        "id": 1116147358,
        "name": "Il Pittore",
        "value": 0.9808606607338779,
        "icon": "restaurants"
      },
      "geometry": {
        "type": "Point",
        "coordinates": [37.570515, 55.674878]
      }
    },
    {
      "type": "Feature",
      "properties": {
        "quantile": 0.47278911564625853,
        "id": 210518960635,
        "name": "Коллектив Наркомфин",
        "value": 0.9807387541143484,
        "icon": "restaurants"
      },
      "geometry": {
        "type": "Point",
        "coordinates": [37.58315, 55.757205]
      }
    },
    {
      "type": "Feature",
      "properties": {
        "quantile": 0.46938775510204084,
        "id": 1753609545,
        "name": "O'Donoghue's",
        "value": 0.9806168474948189,
        "icon": "night_club"
      },
      "geometry": {
        "type": "Point",
        "coordinates": [37.629165, 55.740836]
      }
    },
    {
      "type": "Feature",
      "properties": {
        "quantile": 0.46598639455782315,
        "id": 218377860079,
        "name": "Dukh",
        "value": 0.9804949408752895,
        "icon": "night_club"
      },
      "geometry": {
        "type": "Point",
        "coordinates": [37.635605, 55.762571]
      }
    },
    {
      "type": "Feature",
      "properties": {
        "quantile": 0.46258503401360546,
        "id": 82496938105,
        "name": "Magnum",
        "value": 0.9803730342557601,
        "icon": "night_club"
      },
      "geometry": {
        "type": "Point",
        "coordinates": [37.587352, 55.778159]
      }
    },
    {
      "type": "Feature",
      "properties": {
        "quantile": 0.45918367346938777,
        "id": 131296398435,
        "name": "Lila",
        "value": 0.9802511276362307,
        "icon": "restaurants"
      },
      "geometry": {
        "type": "Point",
        "coordinates": [37.632337, 55.769488]
      }
    },
    {
      "type": "Feature",
      "properties": {
        "quantile": 0.4557823129251701,
        "id": 1758842876,
        "name": "Lion's Head Pub",
        "value": 0.9801292210167012,
        "icon": "night_club"
      },
      "geometry": {
        "type": "Point",
        "coordinates": [37.634945, 55.762986]
      }
    },
    {
      "type": "Feature",
      "properties": {
        "quantile": 0.4523809523809524,
        "id": 44880575916,
        "name": "Paulaner",
        "value": 0.9800073143971718,
        "icon": "restaurants"
      },
      "geometry": {
        "type": "Point",
        "coordinates": [37.619914, 55.734757]
      }
    },
    {
      "type": "Feature",
      "properties": {
        "quantile": 0.4489795918367347,
        "id": 1105300243,
        "name": "Под Мухой",
        "value": 0.9798854077776423,
        "icon": "night_club"
      },
      "geometry": {
        "type": "Point",
        "coordinates": [37.60924, 55.765597]
      }
    },
    {
      "type": "Feature",
      "properties": {
        "quantile": 0.445578231292517,
        "id": 128170712883,
        "name": "Marie Laveau",
        "value": 0.9797635011581128,
        "icon": "night_club"
      },
      "geometry": {
        "type": "Point",
        "coordinates": [37.614123, 55.768075]
      }
    },
    {
      "type": "Feature",
      "properties": {
        "quantile": 0.4421768707482993,
        "id": 113586380901,
        "name": "Saviv",
        "value": 0.9796415945385835,
        "icon": "restaurants"
      },
      "geometry": {
        "type": "Point",
        "coordinates": [37.61394, 55.76816]
      }
    },
    {
      "type": "Feature",
      "properties": {
        "quantile": 0.4387755102040816,
        "id": 86450383884,
        "name": "Публика",
        "value": 0.9793977812995246,
        "icon": "restaurants"
      },
      "geometry": {
        "type": "Point",
        "coordinates": [37.663535, 55.766458]
      }
    },
    {
      "type": "Feature",
      "properties": {
        "quantile": 0.43537414965986393,
        "id": 107753041451,
        "name": "Дом в Котором",
        "value": 0.9792758746799951,
        "icon": "night_club"
      },
      "geometry": {
        "type": "Point",
        "coordinates": [37.645409, 55.758561]
      }
    },
    {
      "type": "Feature",
      "properties": {
        "quantile": 0.43197278911564624,
        "id": 188191181494,
        "name": "Segreto Bar",
        "value": 0.9791539680604657,
        "icon": "night_club"
      },
      "geometry": {
        "type": "Point",
        "coordinates": [37.59849, 55.767578]
      }
    },
    {
      "type": "Feature",
      "properties": {
        "quantile": 0.42857142857142855,
        "id": 33583734027,
        "name": "Lobby",
        "value": 0.9790320614409362,
        "icon": "cafe"
      },
      "geometry": {
        "type": "Point",
        "coordinates": [37.626355, 55.752667]
      }
    },
    {
      "type": "Feature",
      "properties": {
        "quantile": 0.42517006802721086,
        "id": 204314108075,
        "name": "Farro Pasta Bar",
        "value": 0.9789101548214068,
        "icon": "restaurants"
      },
      "geometry": {
        "type": "Point",
        "coordinates": [37.639364, 55.758469]
      }
    },
    {
      "type": "Feature",
      "properties": {
        "quantile": 0.4217687074829932,
        "id": 1269789076,
        "name": "Энтузиаст",
        "value": 0.9787882482018774,
        "icon": "cafe"
      },
      "geometry": {
        "type": "Point",
        "coordinates": [37.614069, 55.763769]
      }
    },
    {
      "type": "Feature",
      "properties": {
        "quantile": 0.41836734693877553,
        "id": 1347223979,
        "name": "Beer & Brut",
        "value": 0.9786663415823479,
        "icon": "restaurants"
      },
      "geometry": {
        "type": "Point",
        "coordinates": [37.649172, 55.760088]
      }
    },
    {
      "type": "Feature",
      "properties": {
        "quantile": 0.41496598639455784,
        "id": 29113567160,
        "name": "Сосна и липа",
        "value": 0.9785444349628185,
        "icon": "night_club"
      },
      "geometry": {
        "type": "Point",
        "coordinates": [37.636887, 55.763187]
      }
    },
    {
      "type": "Feature",
      "properties": {
        "quantile": 0.41156462585034015,
        "id": 237107002346,
        "name": "Кофемания",
        "value": 0.978422528343289,
        "icon": "restaurants"
      },
      "geometry": {
        "type": "Point",
        "coordinates": [37.550295, 55.684418]
      }
    },
    {
      "type": "Feature",
      "properties": {
        "quantile": 0.40816326530612246,
        "id": 116671620173,
        "name": "Ami Chaise",
        "value": 0.9783006217237596,
        "icon": "restaurants"
      },
      "geometry": {
        "type": "Point",
        "coordinates": [37.672218, 55.775376]
      }
    },
    {
      "type": "Feature",
      "properties": {
        "quantile": 0.40476190476190477,
        "id": 190919154252,
        "name": "Рыба Мечты",
        "value": 0.9781787151042302,
        "icon": "restaurants"
      },
      "geometry": {
        "type": "Point",
        "coordinates": [37.640752, 55.740498]
      }
    },
    {
      "type": "Feature",
      "properties": {
        "quantile": 0.4013605442176871,
        "id": 158215149746,
        "name": "Ossu Eatery Asian Barroom",
        "value": 0.9780568084847007,
        "icon": "restaurants"
      },
      "geometry": {
        "type": "Point",
        "coordinates": [37.632142, 55.767029]
      }
    },
    {
      "type": "Feature",
      "properties": {
        "quantile": 0.3979591836734694,
        "id": 126378669057,
        "name": "Eggsellent",
        "value": 0.9779349018651713,
        "icon": "cafe"
      },
      "geometry": {
        "type": "Point",
        "coordinates": [37.59217, 55.768945]
      }
    },
    {
      "type": "Feature",
      "properties": {
        "quantile": 0.3945578231292517,
        "id": 244700813565,
        "name": "Harat’s pub",
        "value": 0.9778129952456418,
        "icon": "night_club"
      },
      "geometry": {
        "type": "Point",
        "coordinates": [37.586784, 55.753074]
      }
    },
    {
      "type": "Feature",
      "properties": {
        "quantile": 0.391156462585034,
        "id": 239629303594,
        "name": "Коробок",
        "value": 0.9776910886261124,
        "icon": "night_club"
      },
      "geometry": {
        "type": "Point",
        "coordinates": [37.614928, 55.760736]
      }
    },
    {
      "type": "Feature",
      "properties": {
        "quantile": 0.3877551020408163,
        "id": 1720143855,
        "name": "Кот Шрёдингера",
        "value": 0.9775691820065829,
        "icon": "night_club"
      },
      "geometry": {
        "type": "Point",
        "coordinates": [37.611224, 55.765431]
      }
    },
    {
      "type": "Feature",
      "properties": {
        "quantile": 0.3843537414965986,
        "id": 240031394268,
        "name": "Практика",
        "value": 0.9774472753870536,
        "icon": "night_club"
      },
      "geometry": {
        "type": "Point",
        "coordinates": [37.606515, 55.767728]
      }
    },
    {
      "type": "Feature",
      "properties": {
        "quantile": 0.38095238095238093,
        "id": 238185678950,
        "name": "Абу Гош",
        "value": 0.9773253687675241,
        "icon": "cafe"
      },
      "geometry": {
        "type": "Point",
        "coordinates": [37.586981, 55.746918]
      }
    },
    {
      "type": "Feature",
      "properties": {
        "quantile": 0.37755102040816324,
        "id": 178845513143,
        "name": "Hedonist",
        "value": 0.9772034621479946,
        "icon": "restaurants"
      },
      "geometry": {
        "type": "Point",
        "coordinates": [37.646505, 55.757434]
      }
    },
    {
      "type": "Feature",
      "properties": {
        "quantile": 0.3741496598639456,
        "id": 46383525115,
        "name": "Моя рьяnaya babyшка летит V cingaпур",
        "value": 0.9770815555284652,
        "icon": "night_club"
      },
      "geometry": {
        "type": "Point",
        "coordinates": [37.60594, 55.756593]
      }
    },
    {
      "type": "Feature",
      "properties": {
        "quantile": 0.3707482993197279,
        "id": 1106890691,
        "name": "Бардак",
        "value": 0.9769596489089357,
        "icon": "cafe"
      },
      "geometry": {
        "type": "Point",
        "coordinates": [37.634379, 55.757307]
      }
    },
    {
      "type": "Feature",
      "properties": {
        "quantile": 0.3673469387755102,
        "id": 139669921746,
        "name": "Neon monkey",
        "value": 0.9768377422894063,
        "icon": "night_club"
      },
      "geometry": {
        "type": "Point",
        "coordinates": [37.611509, 55.765423]
      }
    },
    {
      "type": "Feature",
      "properties": {
        "quantile": 0.36394557823129253,
        "id": 137442881321,
        "name": "Практика",
        "value": 0.9767158356698769,
        "icon": "night_club"
      },
      "geometry": {
        "type": "Point",
        "coordinates": [37.580979, 55.76946]
      }
    },
    {
      "type": "Feature",
      "properties": {
        "quantile": 0.36054421768707484,
        "id": 175826228668,
        "name": "Комната Отдыха",
        "value": 0.9765939290503475,
        "icon": "night_club"
      },
      "geometry": {
        "type": "Point",
        "coordinates": [37.578029, 55.773983]
      }
    },
    {
      "type": "Feature",
      "properties": {
        "quantile": 0.35714285714285715,
        "id": 236844928727,
        "name": "Рыба моя",
        "value": 0.976472022430818,
        "icon": "restaurants"
      },
      "geometry": {
        "type": "Point",
        "coordinates": [37.623073, 55.767434]
      }
    },
    {
      "type": "Feature",
      "properties": {
        "quantile": 0.35374149659863946,
        "id": 23057905184,
        "name": "Барка",
        "value": 0.9763501158112885,
        "icon": "night_club"
      },
      "geometry": {
        "type": "Point",
        "coordinates": [37.626281, 55.754192]
      }
    },
    {
      "type": "Feature",
      "properties": {
        "quantile": 0.35034013605442177,
        "id": 219991452624,
        "name": "Brisket BBQ",
        "value": 0.9762282091917591,
        "icon": "restaurants"
      },
      "geometry": {
        "type": "Point",
        "coordinates": [37.583917, 55.741927]
      }
    },
    {
      "type": "Feature",
      "properties": {
        "quantile": 0.3469387755102041,
        "id": 1046901510,
        "name": "Обломов",
        "value": 0.9761063025722296,
        "icon": "restaurants"
      },
      "geometry": {
        "type": "Point",
        "coordinates": [37.628212, 55.732336]
      }
    },
    {
      "type": "Feature",
      "properties": {
        "quantile": 0.3435374149659864,
        "id": 135403898158,
        "name": "Sangre Fresca",
        "value": 0.9759843959527003,
        "icon": "restaurants"
      },
      "geometry": {
        "type": "Point",
        "coordinates": [37.590419, 55.763745]
      }
    },
    {
      "type": "Feature",
      "properties": {
        "quantile": 0.3401360544217687,
        "id": 1004413816,
        "name": "Сахли",
        "value": 0.9758624893331708,
        "icon": "restaurants"
      },
      "geometry": {
        "type": "Point",
        "coordinates": [37.616472, 55.770687]
      }
    },
    {
      "type": "Feature",
      "properties": {
        "quantile": 0.336734693877551,
        "id": 238387587098,
        "name": "Свинья и роза",
        "value": 0.9757405827136414,
        "icon": "night_club"
      },
      "geometry": {
        "type": "Point",
        "coordinates": [37.624825, 55.768945]
      }
    },
    {
      "type": "Feature",
      "properties": {
        "quantile": 0.3333333333333333,
        "id": 241088637125,
        "name": "Omg Coffee",
        "value": 0.9756186760941119,
        "icon": "cafe"
      },
      "geometry": {
        "type": "Point",
        "coordinates": [37.624184, 55.76203]
      }
    },
    {
      "type": "Feature",
      "properties": {
        "quantile": 0.3299319727891156,
        "id": 4463150601,
        "name": "Eva",
        "value": 0.9754967694745824,
        "icon": "restaurants"
      },
      "geometry": {
        "type": "Point",
        "coordinates": [37.586368, 55.773922]
      }
    },
    {
      "type": "Feature",
      "properties": {
        "quantile": 0.32653061224489793,
        "id": 207539978781,
        "name": "Babes Never Die",
        "value": 0.975374862855053,
        "icon": "night_club"
      },
      "geometry": {
        "type": "Point",
        "coordinates": [37.597136, 55.770309]
      }
    },
    {
      "type": "Feature",
      "properties": {
        "quantile": 0.3231292517006803,
        "id": 87407731459,
        "name": "Печорин",
        "value": 0.9752529562355235,
        "icon": "cafe"
      },
      "geometry": {
        "type": "Point",
        "coordinates": [37.573028, 55.769233]
      }
    },
    {
      "type": "Feature",
      "properties": {
        "quantile": 0.3197278911564626,
        "id": 1195657414,
        "name": "Одесса-мама",
        "value": 0.9751310496159942,
        "icon": "cafe"
      },
      "geometry": {
        "type": "Point",
        "coordinates": [37.63568, 55.761849]
      }
    },
    {
      "type": "Feature",
      "properties": {
        "quantile": 0.3163265306122449,
        "id": 212884974229,
        "name": "The Nest Moscow",
        "value": 0.9750091429964647,
        "icon": "night_club"
      },
      "geometry": {
        "type": "Point",
        "coordinates": [37.632419, 55.766946]
      }
    },
    {
      "type": "Feature",
      "properties": {
        "quantile": 0.3129251700680272,
        "id": 213553197002,
        "name": "Айна",
        "value": 0.9748872363769353,
        "icon": "restaurants"
      },
      "geometry": {
        "type": "Point",
        "coordinates": [37.59915, 55.741748]
      }
    },
    {
      "type": "Feature",
      "properties": {
        "quantile": 0.30952380952380953,
        "id": 131157051825,
        "name": "Дом Культур",
        "value": 0.9747653297574058,
        "icon": "restaurants"
      },
      "geometry": {
        "type": "Point",
        "coordinates": [37.632258, 55.770845]
      }
    },
    {
      "type": "Feature",
      "properties": {
        "quantile": 0.30612244897959184,
        "id": 80114964108,
        "name": "Masters & Margaritas",
        "value": 0.9746434231378764,
        "icon": "night_club"
      },
      "geometry": {
        "type": "Point",
        "coordinates": [37.627324, 55.745055]
      }
    },
    {
      "type": "Feature",
      "properties": {
        "quantile": 0.30272108843537415,
        "id": 136715961903,
        "name": "The Abbey Players",
        "value": 0.974521516518347,
        "icon": "restaurants"
      },
      "geometry": {
        "type": "Point",
        "coordinates": [37.598111, 55.752688]
      }
    },
    {
      "type": "Feature",
      "properties": {
        "quantile": 0.29931972789115646,
        "id": 19064247091,
        "name": "Piri Piri",
        "value": 0.9743996098988175,
        "icon": "night_club"
      },
      "geometry": {
        "type": "Point",
        "coordinates": [37.615098, 55.766312]
      }
    },
    {
      "type": "Feature",
      "properties": {
        "quantile": 0.29591836734693877,
        "id": 199540542944,
        "name": "Кофемания",
        "value": 0.9742777032792881,
        "icon": "restaurants"
      },
      "geometry": {
        "type": "Point",
        "coordinates": [37.626495, 55.729423]
      }
    },
    {
      "type": "Feature",
      "properties": {
        "quantile": 0.2925170068027211,
        "id": 177296793678,
        "name": "Everland",
        "value": 0.9741557966597586,
        "icon": "night_club"
      },
      "geometry": {
        "type": "Point",
        "coordinates": [37.607118, 55.751101]
      }
    },
    {
      "type": "Feature",
      "properties": {
        "quantile": 0.2891156462585034,
        "id": 208741704404,
        "name": "Конор Мак Несса",
        "value": 0.9740338900402292,
        "icon": "night_club"
      },
      "geometry": {
        "type": "Point",
        "coordinates": [37.556684, 55.680973]
      }
    },
    {
      "type": "Feature",
      "properties": {
        "quantile": 0.2857142857142857,
        "id": 182792595610,
        "name": "Grande Friends Forever",
        "value": 0.9739119834206997,
        "icon": "restaurants"
      },
      "geometry": {
        "type": "Point",
        "coordinates": [37.600955, 55.742977]
      }
    },
    {
      "type": "Feature",
      "properties": {
        "quantile": 0.282312925170068,
        "id": 187634822305,
        "name": "Dizengof99",
        "value": 0.9737900768011704,
        "icon": "cafe"
      },
      "geometry": {
        "type": "Point",
        "coordinates": [37.646724, 55.757275]
      }
    },
    {
      "type": "Feature",
      "properties": {
        "quantile": 0.2789115646258503,
        "id": 57941554315,
        "name": "Single",
        "value": 0.9736681701816409,
        "icon": "restaurants"
      },
      "geometry": {
        "type": "Point",
        "coordinates": [37.597272, 55.752044]
      }
    },
    {
      "type": "Feature",
      "properties": {
        "quantile": 0.2755102040816326,
        "id": 44614948367,
        "name": "Старик и море",
        "value": 0.9735462635621114,
        "icon": "restaurants"
      },
      "geometry": {
        "type": "Point",
        "coordinates": [37.643929, 55.760604]
      }
    },
    {
      "type": "Feature",
      "properties": {
        "quantile": 0.272108843537415,
        "id": 41699690383,
        "name": "Bloom-n-Brew Baum",
        "value": 0.973424356942582,
        "icon": "cafe"
      },
      "geometry": {
        "type": "Point",
        "coordinates": [37.673307, 55.774678]
      }
    },
    {
      "type": "Feature",
      "properties": {
        "quantile": 0.2687074829931973,
        "id": 141273601239,
        "name": "Brodo",
        "value": 0.9733024503230525,
        "icon": "night_club"
      },
      "geometry": {
        "type": "Point",
        "coordinates": [37.614553, 55.767868]
      }
    },
    {
      "type": "Feature",
      "properties": {
        "quantile": 0.2653061224489796,
        "id": 190688509841,
        "name": "Моремания",
        "value": 0.9731805437035231,
        "icon": "restaurants"
      },
      "geometry": {
        "type": "Point",
        "coordinates": [37.622442, 55.730131]
      }
    },
    {
      "type": "Feature",
      "properties": {
        "quantile": 0.2619047619047619,
        "id": 182820679264,
        "name": "We Cidreria",
        "value": 0.9730586370839936,
        "icon": "restaurants"
      },
      "geometry": {
        "type": "Point",
        "coordinates": [37.632967, 55.756248]
      }
    },
    {
      "type": "Feature",
      "properties": {
        "quantile": 0.2585034013605442,
        "id": 165834064488,
        "name": "Ketch Up",
        "value": 0.9729367304644643,
        "icon": "restaurants"
      },
      "geometry": {
        "type": "Point",
        "coordinates": [37.64432, 55.759074]
      }
    },
    {
      "type": "Feature",
      "properties": {
        "quantile": 0.25510204081632654,
        "id": 63744013763,
        "name": "Вишнёвый сад",
        "value": 0.9728148238449348,
        "icon": "night_club"
      },
      "geometry": {
        "type": "Point",
        "coordinates": [37.59531, 55.763359]
      }
    },
    {
      "type": "Feature",
      "properties": {
        "quantile": 0.25170068027210885,
        "id": 134220897896,
        "name": "Brasserie Lambic",
        "value": 0.9726929172254053,
        "icon": "restaurants"
      },
      "geometry": {
        "type": "Point",
        "coordinates": [37.652157, 55.743351]
      }
    },
    {
      "type": "Feature",
      "properties": {
        "quantile": 0.24829931972789115,
        "id": 11790348944,
        "name": "Без рецепта",
        "value": 0.9725710106058759,
        "icon": "cafe"
      },
      "geometry": {
        "type": "Point",
        "coordinates": [37.571512, 55.749984]
      }
    },
    {
      "type": "Feature",
      "properties": {
        "quantile": 0.24489795918367346,
        "id": 1050536327,
        "name": "Breakfast Cafe",
        "value": 0.9724491039863464,
        "icon": "cafe"
      },
      "geometry": {
        "type": "Point",
        "coordinates": [37.597317, 55.757885]
      }
    },
    {
      "type": "Feature",
      "properties": {
        "quantile": 0.24149659863945577,
        "id": 27339938644,
        "name": "Зинзивер",
        "value": 0.972327197366817,
        "icon": "night_club"
      },
      "geometry": {
        "type": "Point",
        "coordinates": [37.645529, 55.758817]
      }
    },
    {
      "type": "Feature",
      "properties": {
        "quantile": 0.23809523809523808,
        "id": 1734107394,
        "name": "Beermood",
        "value": 0.9722052907472876,
        "icon": "night_club"
      },
      "geometry": {
        "type": "Point",
        "coordinates": [37.646459, 55.760461]
      }
    },
    {
      "type": "Feature",
      "properties": {
        "quantile": 0.23469387755102042,
        "id": 178752366112,
        "name": "Лес",
        "value": 0.9720833841277582,
        "icon": "restaurants"
      },
      "geometry": {
        "type": "Point",
        "coordinates": [37.599161, 55.759309]
      }
    },
    {
      "type": "Feature",
      "properties": {
        "quantile": 0.23129251700680273,
        "id": 28290019614,
        "name": "Слёзы",
        "value": 0.9719614775082287,
        "icon": "night_club"
      },
      "geometry": {
        "type": "Point",
        "coordinates": [37.665283, 55.752074]
      }
    },
    {
      "type": "Feature",
      "properties": {
        "quantile": 0.22789115646258504,
        "id": 166468014884,
        "name": "Кабинет 3.14",
        "value": 0.9718395708886992,
        "icon": "night_club"
      },
      "geometry": {
        "type": "Point",
        "coordinates": [37.625777, 55.771799]
      }
    },
    {
      "type": "Feature",
      "properties": {
        "quantile": 0.22448979591836735,
        "id": 124241467853,
        "name": "Сыроварня",
        "value": 0.9717176642691698,
        "icon": "restaurants"
      },
      "geometry": {
        "type": "Point",
        "coordinates": [37.550703, 55.683905]
      }
    },
    {
      "type": "Feature",
      "properties": {
        "quantile": 0.22108843537414966,
        "id": 6531532095,
        "name": "Sempre",
        "value": 0.9715957576496403,
        "icon": "restaurants"
      },
      "geometry": {
        "type": "Point",
        "coordinates": [37.612851, 55.763409]
      }
    },
    {
      "type": "Feature",
      "properties": {
        "quantile": 0.21768707482993196,
        "id": 244151023247,
        "name": "Brasserie Lambic",
        "value": 0.971473851030111,
        "icon": "restaurants"
      },
      "geometry": {
        "type": "Point",
        "coordinates": [37.627348, 55.756205]
      }
    },
    {
      "type": "Feature",
      "properties": {
        "quantile": 0.21428571428571427,
        "id": 49857449051,
        "name": "Хон Гиль Дон",
        "value": 0.9713519444105815,
        "icon": "night_club"
      },
      "geometry": {
        "type": "Point",
        "coordinates": [37.627077, 55.744391]
      }
    },
    {
      "type": "Feature",
      "properties": {
        "quantile": 0.2108843537414966,
        "id": 1165538409,
        "name": "Geraldine",
        "value": 0.9712300377910521,
        "icon": "restaurants"
      },
      "geometry": {
        "type": "Point",
        "coordinates": [37.597559, 55.738969]
      }
    },
    {
      "type": "Feature",
      "properties": {
        "quantile": 0.20748299319727892,
        "id": 1165596568,
        "name": "Аченти",
        "value": 0.9711081311715226,
        "icon": "restaurants"
      },
      "geometry": {
        "type": "Point",
        "coordinates": [37.593121, 55.737598]
      }
    },
    {
      "type": "Feature",
      "properties": {
        "quantile": 0.20408163265306123,
        "id": 182896170793,
        "name": "На Вина!",
        "value": 0.9709862245519931,
        "icon": "night_club"
      },
      "geometry": {
        "type": "Point",
        "coordinates": [37.599756, 55.756997]
      }
    },
    {
      "type": "Feature",
      "properties": {
        "quantile": 0.20068027210884354,
        "id": 1246708985,
        "name": "Хитрые Люди",
        "value": 0.9708643179324637,
        "icon": "restaurants"
      },
      "geometry": {
        "type": "Point",
        "coordinates": [37.665639, 55.75566]
      }
    },
    {
      "type": "Feature",
      "properties": {
        "quantile": 0.19727891156462585,
        "id": 116589370357,
        "name": "Cream Soda",
        "value": 0.9707424113129343,
        "icon": "cafe"
      },
      "geometry": {
        "type": "Point",
        "coordinates": [37.634977, 55.763062]
      }
    },
    {
      "type": "Feature",
      "properties": {
        "quantile": 0.19387755102040816,
        "id": 134654216652,
        "name": "Bigati bar",
        "value": 0.9706205046934049,
        "icon": "night_club"
      },
      "geometry": {
        "type": "Point",
        "coordinates": [37.657426, 55.763706]
      }
    },
    {
      "type": "Feature",
      "properties": {
        "quantile": 0.19047619047619047,
        "id": 80137249291,
        "name": "Тебураси",
        "value": 0.9704985980738754,
        "icon": "night_club"
      },
      "geometry": {
        "type": "Point",
        "coordinates": [37.607988, 55.767646]
      }
    },
    {
      "type": "Feature",
      "properties": {
        "quantile": 0.1870748299319728,
        "id": 1019572444,
        "name": "Корчма Тарас Бульба",
        "value": 0.970376691454346,
        "icon": "restaurants"
      },
      "geometry": {
        "type": "Point",
        "coordinates": [37.585997, 55.710643]
      }
    },
    {
      "type": "Feature",
      "properties": {
        "quantile": 0.1836734693877551,
        "id": 1680163161,
        "name": "Kwak",
        "value": 0.9702547848348165,
        "icon": "night_club"
      },
      "geometry": {
        "type": "Point",
        "coordinates": [37.638935, 55.758009]
      }
    },
    {
      "type": "Feature",
      "properties": {
        "quantile": 0.18027210884353742,
        "id": 198630108517,
        "name": "Прогресс",
        "value": 0.970132878215287,
        "icon": "night_club"
      },
      "geometry": {
        "type": "Point",
        "coordinates": [37.613678, 55.773095]
      }
    },
    {
      "type": "Feature",
      "properties": {
        "quantile": 0.17687074829931973,
        "id": 59651958737,
        "name": "Dry&Wet bar",
        "value": 0.9700109715957577,
        "icon": "night_club"
      },
      "geometry": {
        "type": "Point",
        "coordinates": [37.597798, 55.768152]
      }
    },
    {
      "type": "Feature",
      "properties": {
        "quantile": 0.17346938775510204,
        "id": 25582945613,
        "name": "Винил и Вино",
        "value": 0.9698890649762282,
        "icon": "restaurants"
      },
      "geometry": {
        "type": "Point",
        "coordinates": [37.609668, 55.772747]
      }
    },
    {
      "type": "Feature",
      "properties": {
        "quantile": 0.17006802721088435,
        "id": 46445058680,
        "name": "Игристый",
        "value": 0.9696452517371693,
        "icon": "restaurants"
      },
      "geometry": {
        "type": "Point",
        "coordinates": [37.625421, 55.73022]
      }
    },
    {
      "type": "Feature",
      "properties": {
        "quantile": 0.16666666666666666,
        "id": 175719503985,
        "name": "Ku: Рамен Изакая бар",
        "value": 0.9695233451176399,
        "icon": "restaurants"
      },
      "geometry": {
        "type": "Point",
        "coordinates": [37.58045, 55.746131]
      }
    },
    {
      "type": "Feature",
      "properties": {
        "quantile": 0.16326530612244897,
        "id": 23267710575,
        "name": "Рыбторг",
        "value": 0.9694014384981104,
        "icon": "restaurants"
      },
      "geometry": {
        "type": "Point",
        "coordinates": [37.597838, 55.764912]
      }
    },
    {
      "type": "Feature",
      "properties": {
        "quantile": 0.1598639455782313,
        "id": 180293143390,
        "name": "Кривоколенный 9с3",
        "value": 0.969279531878581,
        "icon": "restaurants"
      },
      "geometry": {
        "type": "Point",
        "coordinates": [37.637738, 55.762866]
      }
    },
    {
      "type": "Feature",
      "properties": {
        "quantile": 0.1564625850340136,
        "id": 113551009931,
        "name": "Хачапури и вино",
        "value": 0.9691576252590516,
        "icon": "cafe"
      },
      "geometry": {
        "type": "Point",
        "coordinates": [37.63809, 55.753878]
      }
    },
    {
      "type": "Feature",
      "properties": {
        "quantile": 0.15306122448979592,
        "id": 32206240171,
        "name": "Собаки в тумане",
        "value": 0.9690357186395221,
        "icon": "night_club"
      },
      "geometry": {
        "type": "Point",
        "coordinates": [37.619552, 55.767091]
      }
    },
    {
      "type": "Feature",
      "properties": {
        "quantile": 0.14965986394557823,
        "id": 187388947173,
        "name": "Brasserie Lambic",
        "value": 0.9689138120199927,
        "icon": "restaurants"
      },
      "geometry": {
        "type": "Point",
        "coordinates": [37.561413, 55.691872]
      }
    },
    {
      "type": "Feature",
      "properties": {
        "quantile": 0.14625850340136054,
        "id": 66557493473,
        "name": "Рислинг Бойз",
        "value": 0.9687919054004632,
        "icon": "restaurants"
      },
      "geometry": {
        "type": "Point",
        "coordinates": [37.632049, 55.768418]
      }
    },
    {
      "type": "Feature",
      "properties": {
        "quantile": 0.14285714285714285,
        "id": 1182644087,
        "name": "I Like Wine",
        "value": 0.9686699987809338,
        "icon": "restaurants"
      },
      "geometry": {
        "type": "Point",
        "coordinates": [37.645726, 55.759237]
      }
    },
    {
      "type": "Feature",
      "properties": {
        "quantile": 0.13945578231292516,
        "id": 154546701123,
        "name": "Bad Bro Bar",
        "value": 0.9685480921614044,
        "icon": "night_club"
      },
      "geometry": {
        "type": "Point",
        "coordinates": [37.581717, 55.774594]
      }
    },
    {
      "type": "Feature",
      "properties": {
        "quantile": 0.1360544217687075,
        "id": 58535172346,
        "name": "Insider",
        "value": 0.9684261855418749,
        "icon": "night_club"
      },
      "geometry": {
        "type": "Point",
        "coordinates": [37.632651, 55.769516]
      }
    },
    {
      "type": "Feature",
      "properties": {
        "quantile": 0.1326530612244898,
        "id": 53143824028,
        "name": "Brasserie Lambic",
        "value": 0.9683042789223455,
        "icon": "restaurants"
      },
      "geometry": {
        "type": "Point",
        "coordinates": [37.595961, 55.736884]
      }
    },
    {
      "type": "Feature",
      "properties": {
        "quantile": 0.1292517006802721,
        "id": 193489022041,
        "name": "J'Pan",
        "value": 0.968182372302816,
        "icon": "restaurants"
      },
      "geometry": {
        "type": "Point",
        "coordinates": [37.624828, 55.770514]
      }
    },
    {
      "type": "Feature",
      "properties": {
        "quantile": 0.12585034013605442,
        "id": 210884412439,
        "name": "Aurora",
        "value": 0.9680604656832866,
        "icon": "restaurants"
      },
      "geometry": {
        "type": "Point",
        "coordinates": [37.561486, 55.755503]
      }
    },
    {
      "type": "Feature",
      "properties": {
        "quantile": 0.12244897959183673,
        "id": 165660514695,
        "name": "Ресторан Гэс-2",
        "value": 0.9679385590637571,
        "icon": "restaurants"
      },
      "geometry": {
        "type": "Point",
        "coordinates": [37.612861, 55.742677]
      }
    },
    {
      "type": "Feature",
      "properties": {
        "quantile": 0.11904761904761904,
        "id": 28121473860,
        "name": "Mátes Pizza&Bar",
        "value": 0.9678166524442278,
        "icon": "fast_food"
      },
      "geometry": {
        "type": "Point",
        "coordinates": [37.561339, 55.784347]
      }
    },
    {
      "type": "Feature",
      "properties": {
        "quantile": 0.11564625850340136,
        "id": 1272610223,
        "name": "Бобры и утки",
        "value": 0.9676947458246983,
        "icon": "cafe"
      },
      "geometry": {
        "type": "Point",
        "coordinates": [37.627366, 55.73359]
      }
    },
    {
      "type": "Feature",
      "properties": {
        "quantile": 0.11224489795918367,
        "id": 1688140549,
        "name": "Спица",
        "value": 0.9675728392051688,
        "icon": "night_club"
      },
      "geometry": {
        "type": "Point",
        "coordinates": [37.624937, 55.759243]
      }
    },
    {
      "type": "Feature",
      "properties": {
        "quantile": 0.10884353741496598,
        "id": 119222016554,
        "name": "Культурный код",
        "value": 0.9674509325856394,
        "icon": "cafe"
      },
      "geometry": {
        "type": "Point",
        "coordinates": [37.595642, 55.775949]
      }
    },
    {
      "type": "Feature",
      "properties": {
        "quantile": 0.1054421768707483,
        "id": 143862442062,
        "name": "Yumbaker Home",
        "value": 0.9673290259661099,
        "icon": "cafe"
      },
      "geometry": {
        "type": "Point",
        "coordinates": [37.626716, 55.732256]
      }
    },
    {
      "type": "Feature",
      "properties": {
        "quantile": 0.10204081632653061,
        "id": 135013165520,
        "name": "Джиб Доор",
        "value": 0.9672071193465805,
        "icon": "restaurants"
      },
      "geometry": {
        "type": "Point",
        "coordinates": [37.632592, 55.766907]
      }
    },
    {
      "type": "Feature",
      "properties": {
        "quantile": 0.09863945578231292,
        "id": 77674788829,
        "name": "Mo friends",
        "value": 0.9670852127270511,
        "icon": "restaurants"
      },
      "geometry": {
        "type": "Point",
        "coordinates": [37.618286, 55.76416]
      }
    },
    {
      "type": "Feature",
      "properties": {
        "quantile": 0.09523809523809523,
        "id": 1020519408,
        "name": "Пилзнер",
        "value": 0.9669633061075217,
        "icon": "restaurants"
      },
      "geometry": {
        "type": "Point",
        "coordinates": [37.641141, 55.733485]
      }
    },
    {
      "type": "Feature",
      "properties": {
        "quantile": 0.09183673469387756,
        "id": 144965826695,
        "name": "Dukh",
        "value": 0.9668413994879922,
        "icon": "night_club"
      },
      "geometry": {
        "type": "Point",
        "coordinates": [37.602145, 55.757385]
      }
    },
    {
      "type": "Feature",
      "properties": {
        "quantile": 0.08843537414965986,
        "id": 1164337332,
        "name": "Conversation",
        "value": 0.9667194928684628,
        "icon": "cafe"
      },
      "geometry": {
        "type": "Point",
        "coordinates": [37.599317, 55.757354]
      }
    },
    {
      "type": "Feature",
      "properties": {
        "quantile": 0.08503401360544217,
        "id": 168523045237,
        "name": "Ровесник",
        "value": 0.9665975862489333,
        "icon": "night_club"
      },
      "geometry": {
        "type": "Point",
        "coordinates": [37.605986, 55.76238]
      }
    },
    {
      "type": "Feature",
      "properties": {
        "quantile": 0.08163265306122448,
        "id": 102799262668,
        "name": "Мария Санта",
        "value": 0.9664756796294038,
        "icon": "cafe"
      },
      "geometry": {
        "type": "Point",
        "coordinates": [37.624984, 55.769419]
      }
    },
    {
      "type": "Feature",
      "properties": {
        "quantile": 0.0782312925170068,
        "id": 71373853129,
        "name": "ГлавПивМаг",
        "value": 0.9663537730098745,
        "icon": "night_club"
      },
      "geometry": {
        "type": "Point",
        "coordinates": [37.646027, 55.760851]
      }
    },
    {
      "type": "Feature",
      "properties": {
        "quantile": 0.07482993197278912,
        "id": 125998466335,
        "name": "CHICKO",
        "value": 0.966231866390345,
        "icon": "cafe"
      },
      "geometry": {
        "type": "Point",
        "coordinates": [37.639693, 55.758542]
      }
    },
    {
      "type": "Feature",
      "properties": {
        "quantile": 0.07142857142857142,
        "id": 21557310367,
        "name": "Leveldva",
        "value": 0.9661099597708156,
        "icon": "restaurants"
      },
      "geometry": {
        "type": "Point",
        "coordinates": [37.606382, 55.756509]
      }
    },
    {
      "type": "Feature",
      "properties": {
        "quantile": 0.06802721088435375,
        "id": 1373229350,
        "name": "Все твои друзья",
        "value": 0.9659880531512861,
        "icon": "night_club"
      },
      "geometry": {
        "type": "Point",
        "coordinates": [37.606725, 55.762669]
      }
    },
    {
      "type": "Feature",
      "properties": {
        "quantile": 0.06462585034013606,
        "id": 1224057130,
        "name": "Max's Beef for Money",
        "value": 0.9658661465317566,
        "icon": "restaurants"
      },
      "geometry": {
        "type": "Point",
        "coordinates": [37.598576, 55.761964]
      }
    },
    {
      "type": "Feature",
      "properties": {
        "quantile": 0.061224489795918366,
        "id": 1147358213,
        "name": "Rico",
        "value": 0.9657442399122272,
        "icon": "restaurants"
      },
      "geometry": {
        "type": "Point",
        "coordinates": [37.580974, 55.743827]
      }
    },
    {
      "type": "Feature",
      "properties": {
        "quantile": 0.05782312925170068,
        "id": 1008556888,
        "name": "Шатёр",
        "value": 0.9656223332926978,
        "icon": "restaurants"
      },
      "geometry": {
        "type": "Point",
        "coordinates": [37.644675, 55.760707]
      }
    },
    {
      "type": "Feature",
      "properties": {
        "quantile": 0.05442176870748299,
        "id": 1783199083,
        "name": "Cevicheria",
        "value": 0.9655004266731684,
        "icon": "restaurants"
      },
      "geometry": {
        "type": "Point",
        "coordinates": [37.605263, 55.738657]
      }
    },
    {
      "type": "Feature",
      "properties": {
        "quantile": 0.05102040816326531,
        "id": 42150689101,
        "name": "Conversation",
        "value": 0.9653785200536389,
        "icon": "cafe"
      },
      "geometry": {
        "type": "Point",
        "coordinates": [37.595838, 55.738582]
      }
    },
    {
      "type": "Feature",
      "properties": {
        "quantile": 0.047619047619047616,
        "id": 54162905237,
        "name": "Stim Coffee",
        "value": 0.9652566134341095,
        "icon": "cafe"
      },
      "geometry": {
        "type": "Point",
        "coordinates": [37.678388, 55.776064]
      }
    },
    {
      "type": "Feature",
      "properties": {
        "quantile": 0.04421768707482993,
        "id": 130868248749,
        "name": "Bijou",
        "value": 0.96513470681458,
        "icon": "restaurants"
      },
      "geometry": {
        "type": "Point",
        "coordinates": [37.584628, 55.773989]
      }
    },
    {
      "type": "Feature",
      "properties": {
        "quantile": 0.04081632653061224,
        "id": 42937882809,
        "name": "Дежурная рюмочная",
        "value": 0.9650128001950506,
        "icon": "night_club"
      },
      "geometry": {
        "type": "Point",
        "coordinates": [37.597271, 55.752545]
      }
    },
    {
      "type": "Feature",
      "properties": {
        "quantile": 0.03741496598639456,
        "id": 1365437480,
        "name": "Брюгге",
        "value": 0.9648908935755212,
        "icon": "night_club"
      },
      "geometry": {
        "type": "Point",
        "coordinates": [37.678975, 55.76995]
      }
    },
    {
      "type": "Feature",
      "properties": {
        "quantile": 0.034013605442176874,
        "id": 1037955132,
        "name": "Black Market",
        "value": 0.9647689869559917,
        "icon": "restaurants"
      },
      "geometry": {
        "type": "Point",
        "coordinates": [37.57691, 55.730936]
      }
    },
    {
      "type": "Feature",
      "properties": {
        "quantile": 0.030612244897959183,
        "id": 73172670175,
        "name": "Angel Cakes Patriki",
        "value": 0.9646470803364623,
        "icon": "cafe"
      },
      "geometry": {
        "type": "Point",
        "coordinates": [37.595682, 55.763786]
      }
    },
    {
      "type": "Feature",
      "properties": {
        "quantile": 0.027210884353741496,
        "id": 111693488229,
        "name": "Blondie",
        "value": 0.9645251737169328,
        "icon": "restaurants"
      },
      "geometry": {
        "type": "Point",
        "coordinates": [37.614846, 55.761247]
      }
    },
    {
      "type": "Feature",
      "properties": {
        "quantile": 0.023809523809523808,
        "id": 28049183827,
        "name": "Рюмочная Довлатов",
        "value": 0.9644032670974034,
        "icon": "night_club"
      },
      "geometry": {
        "type": "Point",
        "coordinates": [37.656027, 55.763651]
      }
    },
    {
      "type": "Feature",
      "properties": {
        "quantile": 0.02040816326530612,
        "id": 165398655321,
        "name": "Hands",
        "value": 0.9642813604778739,
        "icon": "restaurants"
      },
      "geometry": {
        "type": "Point",
        "coordinates": [37.573086, 55.73536]
      }
    },
    {
      "type": "Feature",
      "properties": {
        "quantile": 0.017006802721088437,
        "id": 92879063105,
        "name": "Extra Virgin",
        "value": 0.9641594538583445,
        "icon": "restaurants"
      },
      "geometry": {
        "type": "Point",
        "coordinates": [37.645387, 55.759409]
      }
    },
    {
      "type": "Feature",
      "properties": {
        "quantile": 0.013605442176870748,
        "id": 52680104900,
        "name": "Frank by Баста",
        "value": 0.9640375472388151,
        "icon": "restaurants"
      },
      "geometry": {
        "type": "Point",
        "coordinates": [37.588055, 55.735498]
      }
    },
    {
      "type": "Feature",
      "properties": {
        "quantile": 0.01020408163265306,
        "id": 88101142426,
        "name": "Рыба моя",
        "value": 0.9639156406192856,
        "icon": "restaurants"
      },
      "geometry": {
        "type": "Point",
        "coordinates": [37.587359, 55.774441]
      }
    },
    {
      "type": "Feature",
      "properties": {
        "quantile": 0.006802721088435374,
        "id": 1231611587,
        "name": "Пробка",
        "value": 0.9637937339997562,
        "icon": "restaurants"
      },
      "geometry": {
        "type": "Point",
        "coordinates": [37.622818, 55.76878]
      }
    },
    {
      "type": "Feature",
      "properties": {
        "quantile": 0.003401360544217687,
        "id": 214399272359,
        "name": "Веранда 32.05",
        "value": 0.9636718273802267,
        "icon": "cafe"
      },
      "geometry": {
        "type": "Point",
        "coordinates": [37.608258, 55.770718]
      }
    },
    {
      "type": "Feature",
      "properties": {
        "quantile": 0,
        "id": 140944674898,
        "name": "Гаражане",
        "value": 0.9635499207606973,
        "icon": "night_club"
      },
      "geometry": {
        "type": "Point",
        "coordinates": [37.587639, 55.791309]
      }
    }
  ]
}
