{"features":[{"geometry":{"coordinates":[30.319203,59.921584],"type":"Point"},"properties":{"id":1136530209,"name":"Диккенс паб","quantile":0.003367003367,"weight1":1,"weight2":0.1014430014},"type":"Feature"},{"geometry":{"coordinates":[30.318045,59.930673],"type":"Point"},"properties":{"id":1447537897,"name":"Стирка 40°","quantile":0.006734006734,"weight1":1,"weight2":0.1028860029},"type":"Feature"},{"geometry":{"coordinates":[30.35115,59.936102],"type":"Point"},"properties":{"id":1758565820,"name":"Imbibe","quantile":0.0101010101,"weight1":1,"weight2":0.1043290043},"type":"Feature"},{"geometry":{"coordinates":[30.308048,59.957708],"type":"Point"},"properties":{"id":1263957896,"name":"Тбилисо","quantile":0.01346801347,"weight1":1,"weight2":0.1057720058},"type":"Feature"},{"geometry":{"coordinates":[30.345203,59.931494],"type":"Point"},"properties":{"id":1152943257,"name":"48 Стульев","quantile":0.01683501684,"weight1":1,"weight2":0.1072150072},"type":"Feature"},{"geometry":{"coordinates":[30.320206,59.936423],"type":"Point"},"properties":{"id":92068973192,"name":"Ro","quantile":0.0202020202,"weight1":1,"weight2":0.1086580087},"type":"Feature"},{"geometry":{"coordinates":[30.316458,59.959215],"type":"Point"},"properties":{"id":1940155326,"name":"ТЧК","quantile":0.02356902357,"weight1":1,"weight2":0.1101010101},"type":"Feature"},{"geometry":{"coordinates":[30.187844,59.989119],"type":"Point"},"properties":{"id":178047891677,"name":"Mais","quantile":0.02693602694,"weight1":1,"weight2":0.1115440115},"type":"Feature"},{"geometry":{"coordinates":[30.327467,59.936749],"type":"Point"},"properties":{"id":210277160956,"name":"Чача","quantile":0.0303030303,"weight1":1,"weight2":0.112987013},"type":"Feature"},{"geometry":{"coordinates":[30.277131,59.963904],"type":"Point"},"properties":{"id":162461217291,"name":"Забыли сахар One Trinity Place","quantile":0.03367003367,"weight1":1,"weight2":0.1144300144},"type":"Feature"},{"geometry":{"coordinates":[30.327669,59.939558],"type":"Point"},"properties":{"id":191847804522,"name":"Saigo","quantile":0.03703703704,"weight1":1,"weight2":0.1158730159},"type":"Feature"},{"geometry":{"coordinates":[30.294322,59.934139],"type":"Point"},"properties":{"id":1136270566,"name":"Шеф Маруся и Ко","quantile":0.0404040404,"weight1":1,"weight2":0.1173160173},"type":"Feature"},{"geometry":{"coordinates":[30.357719,59.931087],"type":"Point"},"properties":{"id":163284217539,"name":"Брынза","quantile":0.04377104377,"weight1":1,"weight2":0.1187590188},"type":"Feature"},{"geometry":{"coordinates":[30.317371,59.90565],"type":"Point"},"properties":{"id":1158457087,"name":"The Kitchen","quantile":0.04713804714,"weight1":1,"weight2":0.1202020202},"type":"Feature"},{"geometry":{"coordinates":[30.324908,59.926679],"type":"Point"},"properties":{"id":154517672772,"name":"Grán","quantile":0.05050505051,"weight1":1,"weight2":0.1216450216},"type":"Feature"},{"geometry":{"coordinates":[30.315019,59.933294],"type":"Point"},"properties":{"id":191967474376,"name":"La Biga","quantile":0.05387205387,"weight1":1,"weight2":0.1230880231},"type":"Feature"},{"geometry":{"coordinates":[30.26763,59.911219],"type":"Point"},"properties":{"id":155727283631,"name":"Тан Жен","quantile":0.05723905724,"weight1":1,"weight2":0.1245310245},"type":"Feature"},{"geometry":{"coordinates":[30.352218,59.935842],"type":"Point"},"properties":{"id":203271905062,"name":"Bar 812","quantile":0.06060606061,"weight1":1,"weight2":0.125974026},"type":"Feature"},{"geometry":{"coordinates":[30.321674,59.857281],"type":"Point"},"properties":{"id":1029656838,"name":"Компания Family","quantile":0.06397306397,"weight1":1,"weight2":0.1274170274},"type":"Feature"},{"geometry":{"coordinates":[30.317996,59.958877],"type":"Point"},"properties":{"id":1349524093,"name":"Manneken Pis","quantile":0.06734006734,"weight1":1,"weight2":0.1288600289},"type":"Feature"},{"geometry":{"coordinates":[30.36054,59.936322],"type":"Point"},"properties":{"id":238601318282,"name":"Under The Sea","quantile":0.07070707071,"weight1":1,"weight2":0.1303030303},"type":"Feature"},{"geometry":{"coordinates":[30.362923,59.935918],"type":"Point"},"properties":{"id":13916378916,"name":"Евразия","quantile":0.07407407407,"weight1":1,"weight2":0.1317460317},"type":"Feature"},{"geometry":{"coordinates":[30.284209,59.964926],"type":"Point"},"properties":{"id":56675720379,"name":"Mntn coffee","quantile":0.07744107744,"weight1":1,"weight2":0.1331890332},"type":"Feature"},{"geometry":{"coordinates":[30.34262,59.92334],"type":"Point"},"properties":{"id":92910262081,"name":"Skal! Наследие Севера","quantile":0.08080808081,"weight1":1,"weight2":0.1346320346},"type":"Feature"},{"geometry":{"coordinates":[30.284035,59.96497],"type":"Point"},"properties":{"id":33731170780,"name":"Vakh","quantile":0.08417508418,"weight1":1,"weight2":0.1360750361},"type":"Feature"},{"geometry":{"coordinates":[30.360454,59.934722],"type":"Point"},"properties":{"id":1029152543,"name":"Марчеллис","quantile":0.08754208754,"weight1":1,"weight2":0.1375180375},"type":"Feature"},{"geometry":{"coordinates":[30.340966,59.948717],"type":"Point"},"properties":{"id":84662477801,"name":"Yve","quantile":0.09090909091,"weight1":1,"weight2":0.138961039},"type":"Feature"},{"geometry":{"coordinates":[30.382456,59.996254],"type":"Point"},"properties":{"id":1300863533,"name":"BEERstudia","quantile":0.09427609428,"weight1":1,"weight2":0.1404040404},"type":"Feature"},{"geometry":{"coordinates":[30.318211,59.927757],"type":"Point"},"properties":{"id":153727239471,"name":"Хачапури тетушки Марико","quantile":0.09764309764,"weight1":1,"weight2":0.1418470418},"type":"Feature"},{"geometry":{"coordinates":[30.360236,59.939133],"type":"Point"},"properties":{"id":144951361522,"name":"United Butchers","quantile":0.101010101,"weight1":1,"weight2":0.1432900433},"type":"Feature"},{"geometry":{"coordinates":[30.322432,59.930076],"type":"Point"},"properties":{"id":239540009932,"name":"Арт Лаб Медоварус","quantile":0.1043771044,"weight1":1,"weight2":0.1447330447},"type":"Feature"},{"geometry":{"coordinates":[30.342753,59.927359],"type":"Point"},"properties":{"id":1011227131,"name":"Трес Амигос","quantile":0.1077441077,"weight1":1,"weight2":0.1461760462},"type":"Feature"},{"geometry":{"coordinates":[30.355638,59.942129],"type":"Point"},"properties":{"id":106881096513,"name":"У Ларисы","quantile":0.1111111111,"weight1":1,"weight2":0.1476190476},"type":"Feature"},{"geometry":{"coordinates":[30.359704,59.948102],"type":"Point"},"properties":{"id":111928695846,"name":"Mama Roma","quantile":0.1144781145,"weight1":1,"weight2":0.1490620491},"type":"Feature"},{"geometry":{"coordinates":[30.342554,59.927068],"type":"Point"},"properties":{"id":64786401684,"name":"Анонимное Общество Усердных Дегустаторов","quantile":0.1178451178,"weight1":1,"weight2":0.1505050505},"type":"Feature"},{"geometry":{"coordinates":[30.317037,59.975535],"type":"Point"},"properties":{"id":190718458779,"name":"Забегаловка","quantile":0.1212121212,"weight1":1,"weight2":0.1519480519},"type":"Feature"},{"geometry":{"coordinates":[30.358412,59.938707],"type":"Point"},"properties":{"id":214604297005,"name":"Ossu Лапшичная","quantile":0.1245791246,"weight1":1,"weight2":0.1533910534},"type":"Feature"},{"geometry":{"coordinates":[30.339251,59.935547],"type":"Point"},"properties":{"id":1020715748,"name":"Molly Shelter","quantile":0.1279461279,"weight1":1,"weight2":0.1548340548},"type":"Feature"},{"geometry":{"coordinates":[30.402424,59.962038],"type":"Point"},"properties":{"id":1158304200,"name":"На Поляне","quantile":0.1313131313,"weight1":1,"weight2":0.1562770563},"type":"Feature"},{"geometry":{"coordinates":[30.35868,59.938137],"type":"Point"},"properties":{"id":66574470929,"name":"Стейдж Стендап Клаб","quantile":0.1346801347,"weight1":1,"weight2":0.1577200577},"type":"Feature"},{"geometry":{"coordinates":[30.347504,59.938152],"type":"Point"},"properties":{"id":168773789318,"name":"Чешская пивница","quantile":0.138047138,"weight1":1,"weight2":0.1591630592},"type":"Feature"},{"geometry":{"coordinates":[30.341761,59.943146],"type":"Point"},"properties":{"id":1380893951,"name":"Бар Роз","quantile":0.1414141414,"weight1":1,"weight2":0.1606060606},"type":"Feature"},{"geometry":{"coordinates":[30.36151,59.945305],"type":"Point"},"properties":{"id":1262319899,"name":"Сундук","quantile":0.1447811448,"weight1":1,"weight2":0.162049062},"type":"Feature"},{"geometry":{"coordinates":[30.369881,59.930187],"type":"Point"},"properties":{"id":153291089798,"name":"Банщики","quantile":0.1481481481,"weight1":1,"weight2":0.1634920635},"type":"Feature"},{"geometry":{"coordinates":[30.347108,59.938368],"type":"Point"},"properties":{"id":214863173274,"name":"Мясная лавка","quantile":0.1515151515,"weight1":1,"weight2":0.1649350649},"type":"Feature"},{"geometry":{"coordinates":[30.350436,59.939323],"type":"Point"},"properties":{"id":144052815639,"name":"Pizzeria da Vincenzo","quantile":0.1548821549,"weight1":1,"weight2":0.1663780664},"type":"Feature"},{"geometry":{"coordinates":[30.347342,59.932556],"type":"Point"},"properties":{"id":1046850354,"name":"Палкинъ","quantile":0.1582491582,"weight1":1,"weight2":0.1678210678},"type":"Feature"},{"geometry":{"coordinates":[30.354658,59.929684],"type":"Point"},"properties":{"id":238244404135,"name":"Чачапури","quantile":0.1616161616,"weight1":1,"weight2":0.1692640693},"type":"Feature"},{"geometry":{"coordinates":[30.374995,59.929804],"type":"Point"},"properties":{"id":1113254597,"name":"O'Hooligans","quantile":0.164983165,"weight1":1,"weight2":0.1707070707},"type":"Feature"},{"geometry":{"coordinates":[30.363882,59.940074],"type":"Point"},"properties":{"id":156935446291,"name":"Italy","quantile":0.1683501684,"weight1":1,"weight2":0.1721500722},"type":"Feature"},{"geometry":{"coordinates":[30.351817,59.935852],"type":"Point"},"properties":{"id":106620498684,"name":"Brick","quantile":0.1717171717,"weight1":1,"weight2":0.1735930736},"type":"Feature"},{"geometry":{"coordinates":[30.353674,59.93905],"type":"Point"},"properties":{"id":95301040317,"name":"Финч","quantile":0.1750841751,"weight1":1,"weight2":0.175036075},"type":"Feature"},{"geometry":{"coordinates":[30.277699,59.985575],"type":"Point"},"properties":{"id":131808942759,"name":"Шампанерия","quantile":0.1784511785,"weight1":1,"weight2":0.1764790765},"type":"Feature"},{"geometry":{"coordinates":[30.352827,59.935841],"type":"Point"},"properties":{"id":13802519318,"name":"Dr. Moro","quantile":0.1818181818,"weight1":1,"weight2":0.1779220779},"type":"Feature"},{"geometry":{"coordinates":[30.307548,59.919909],"type":"Point"},"properties":{"id":37960552069,"name":"Tequila-Boom","quantile":0.1851851852,"weight1":1,"weight2":0.1793650794},"type":"Feature"},{"geometry":{"coordinates":[30.3605,59.935159],"type":"Point"},"properties":{"id":54784313842,"name":"Бабагануш","quantile":0.1885521886,"weight1":1,"weight2":0.1808080808},"type":"Feature"},{"geometry":{"coordinates":[30.276866,59.96434],"type":"Point"},"properties":{"id":17451157961,"name":"Noto","quantile":0.1919191919,"weight1":1,"weight2":0.1822510823},"type":"Feature"},{"geometry":{"coordinates":[30.295228,59.959024],"type":"Point"},"properties":{"id":168652058768,"name":"Crowbar","quantile":0.1952861953,"weight1":1,"weight2":0.1836940837},"type":"Feature"},{"geometry":{"coordinates":[30.279411,59.942171],"type":"Point"},"properties":{"id":1168236241,"name":"BBQ Beer Restaurant","quantile":0.1986531987,"weight1":1,"weight2":0.1851370851},"type":"Feature"},{"geometry":{"coordinates":[30.318007,59.904036],"type":"Point"},"properties":{"id":8681364984,"name":"Manneken Pis","quantile":0.202020202,"weight1":1,"weight2":0.1865800866},"type":"Feature"},{"geometry":{"coordinates":[30.323766,59.939866],"type":"Point"},"properties":{"id":241123645181,"name":"Saviv","quantile":0.2053872054,"weight1":1,"weight2":0.188023088},"type":"Feature"},{"geometry":{"coordinates":[30.349096,59.945959],"type":"Point"},"properties":{"id":81414676643,"name":"Тбилисити","quantile":0.2087542088,"weight1":1,"weight2":0.1894660895},"type":"Feature"},{"geometry":{"coordinates":[30.347579,59.938157],"type":"Point"},"properties":{"id":1033607291,"name":"Толстый Фраер","quantile":0.2121212121,"weight1":1,"weight2":0.1909090909},"type":"Feature"},{"geometry":{"coordinates":[30.345823,59.931916],"type":"Point"},"properties":{"id":81471659680,"name":"Grazie Ragazzi","quantile":0.2154882155,"weight1":1,"weight2":0.1923520924},"type":"Feature"},{"geometry":{"coordinates":[30.295522,59.955757],"type":"Point"},"properties":{"id":228111266197,"name":"Pio Nero","quantile":0.2188552189,"weight1":1,"weight2":0.1937950938},"type":"Feature"},{"geometry":{"coordinates":[30.24892,59.922101],"type":"Point"},"properties":{"id":107026994248,"name":"Crevette","quantile":0.2222222222,"weight1":1,"weight2":0.1952380952},"type":"Feature"},{"geometry":{"coordinates":[30.340797,59.940795],"type":"Point"},"properties":{"id":139016069714,"name":"Tawny Bar","quantile":0.2255892256,"weight1":1,"weight2":0.1966810967},"type":"Feature"},{"geometry":{"coordinates":[30.35308,59.931845],"type":"Point"},"properties":{"id":1319376183,"name":"Pita's","quantile":0.228956229,"weight1":1,"weight2":0.1981240981},"type":"Feature"},{"geometry":{"coordinates":[30.309323,59.935922],"type":"Point"},"properties":{"id":1122978100,"name":"Радио Ирландия","quantile":0.2323232323,"weight1":1,"weight2":0.1995670996},"type":"Feature"},{"geometry":{"coordinates":[30.31313,59.926428],"type":"Point"},"properties":{"id":164744118464,"name":"Северянин","quantile":0.2356902357,"weight1":1,"weight2":0.201010101},"type":"Feature"},{"geometry":{"coordinates":[30.35839,59.946326],"type":"Point"},"properties":{"id":1326751110,"name":"Фрида","quantile":0.2390572391,"weight1":1,"weight2":0.2024531025},"type":"Feature"},{"geometry":{"coordinates":[30.272472,59.966064],"type":"Point"},"properties":{"id":164200275017,"name":"Мина","quantile":0.2424242424,"weight1":1,"weight2":0.2038961039},"type":"Feature"},{"geometry":{"coordinates":[30.313871,59.936131],"type":"Point"},"properties":{"id":49108865652,"name":"Хачапури тетушки Марико","quantile":0.2457912458,"weight1":1,"weight2":0.2053391053},"type":"Feature"},{"geometry":{"coordinates":[30.29941,59.96173],"type":"Point"},"properties":{"id":48968794800,"name":"Solids","quantile":0.2491582492,"weight1":1,"weight2":0.2067821068},"type":"Feature"},{"geometry":{"coordinates":[30.31901,59.880143],"type":"Point"},"properties":{"id":25301797853,"name":"Grill Station","quantile":0.2525252525,"weight1":1,"weight2":0.2082251082},"type":"Feature"},{"geometry":{"coordinates":[30.326814,59.934266],"type":"Point"},"properties":{"id":91092362732,"name":"Nino","quantile":0.2558922559,"weight1":1,"weight2":0.2096681097},"type":"Feature"},{"geometry":{"coordinates":[30.345132,59.930705],"type":"Point"},"properties":{"id":195644805082,"name":"Gods","quantile":0.2592592593,"weight1":1,"weight2":0.2111111111},"type":"Feature"},{"geometry":{"coordinates":[30.308179,59.969063],"type":"Point"},"properties":{"id":1089502936,"name":"Евразия","quantile":0.2626262626,"weight1":1,"weight2":0.2125541126},"type":"Feature"},{"geometry":{"coordinates":[30.393167,59.979614],"type":"Point"},"properties":{"id":243066880144,"name":"Мартен","quantile":0.265993266,"weight1":1,"weight2":0.213997114},"type":"Feature"},{"geometry":{"coordinates":[30.231673,59.939944],"type":"Point"},"properties":{"id":193887849308,"name":"Settlers","quantile":0.2693602694,"weight1":1,"weight2":0.2154401154},"type":"Feature"},{"geometry":{"coordinates":[30.345002,59.940965],"type":"Point"},"properties":{"id":1801245718,"name":"Буковски","quantile":0.2727272727,"weight1":1,"weight2":0.2168831169},"type":"Feature"},{"geometry":{"coordinates":[30.325336,59.938975],"type":"Point"},"properties":{"id":1155528212,"name":"Big Liver Place","quantile":0.2760942761,"weight1":1,"weight2":0.2183261183},"type":"Feature"},{"geometry":{"coordinates":[30.347134,59.938162],"type":"Point"},"properties":{"id":216676805801,"name":"Forno Bravo Centrale","quantile":0.2794612795,"weight1":1,"weight2":0.2197691198},"type":"Feature"},{"geometry":{"coordinates":[30.345382,59.938141],"type":"Point"},"properties":{"id":1069260340,"name":"Oliver","quantile":0.2828282828,"weight1":1,"weight2":0.2212121212},"type":"Feature"},{"geometry":{"coordinates":[30.361329,59.938853],"type":"Point"},"properties":{"id":12139185596,"name":"Zavod","quantile":0.2861952862,"weight1":1,"weight2":0.2226551227},"type":"Feature"},{"geometry":{"coordinates":[30.289183,59.963056],"type":"Point"},"properties":{"id":43738375855,"name":"Сад","quantile":0.2895622896,"weight1":1,"weight2":0.2240981241},"type":"Feature"},{"geometry":{"coordinates":[30.358755,59.938888],"type":"Point"},"properties":{"id":47832587535,"name":"Мапуче","quantile":0.2929292929,"weight1":1,"weight2":0.2255411255},"type":"Feature"},{"geometry":{"coordinates":[30.341807,59.942809],"type":"Point"},"properties":{"id":1007669551,"name":"Vox","quantile":0.2962962963,"weight1":1,"weight2":0.226984127},"type":"Feature"},{"geometry":{"coordinates":[30.345384,59.931018],"type":"Point"},"properties":{"id":147715173917,"name":"Flor","quantile":0.2996632997,"weight1":1,"weight2":0.2284271284},"type":"Feature"},{"geometry":{"coordinates":[30.343334,59.927644],"type":"Point"},"properties":{"id":1081601624,"name":"Mollie's Pub","quantile":0.303030303,"weight1":1,"weight2":0.2298701299},"type":"Feature"},{"geometry":{"coordinates":[29.863944,60.166028],"type":"Point"},"properties":{"id":1329700557,"name":"Stroganoff Bar&Grill","quantile":0.3063973064,"weight1":1,"weight2":0.2313131313},"type":"Feature"},{"geometry":{"coordinates":[30.315726,59.927141],"type":"Point"},"properties":{"id":1586817364,"name":"Чарли","quantile":0.3097643098,"weight1":1,"weight2":0.2327561328},"type":"Feature"},{"geometry":{"coordinates":[30.316468,59.978218],"type":"Point"},"properties":{"id":200207688994,"name":"Aiki terrasa","quantile":0.3131313131,"weight1":1,"weight2":0.2341991342},"type":"Feature"},{"geometry":{"coordinates":[30.342784,59.937141],"type":"Point"},"properties":{"id":1190584977,"name":"Let IT bar","quantile":0.3164983165,"weight1":1,"weight2":0.2356421356},"type":"Feature"},{"geometry":{"coordinates":[30.312329,59.928502],"type":"Point"},"properties":{"id":114407926762,"name":"Oversize pizza club","quantile":0.3198653199,"weight1":1,"weight2":0.2370851371},"type":"Feature"},{"geometry":{"coordinates":[30.378535,59.940138],"type":"Point"},"properties":{"id":179765127363,"name":"КИDO","quantile":0.3232323232,"weight1":1,"weight2":0.2385281385},"type":"Feature"},{"geometry":{"coordinates":[30.284558,59.965117],"type":"Point"},"properties":{"id":54046467732,"name":"Futurist","quantile":0.3265993266,"weight1":1,"weight2":0.23997114},"type":"Feature"},{"geometry":{"coordinates":[30.345137,59.935989],"type":"Point"},"properties":{"id":78617379104,"name":"Мама Рома","quantile":0.32996633,"weight1":1,"weight2":0.2414141414},"type":"Feature"},{"geometry":{"coordinates":[30.34192,59.937688],"type":"Point"},"properties":{"id":50741498941,"name":"Lorenzo Medici","quantile":0.3333333333,"weight1":1,"weight2":0.2428571429},"type":"Feature"},{"geometry":{"coordinates":[30.367157,59.943979],"type":"Point"},"properties":{"id":14501650242,"name":"Слой х Вспышка","quantile":0.3367003367,"weight1":1,"weight2":0.2443001443},"type":"Feature"},{"geometry":{"coordinates":[30.29651,59.932349],"type":"Point"},"properties":{"id":58264186270,"name":"CasaDeiCaffe","quantile":0.3400673401,"weight1":1,"weight2":0.2457431457},"type":"Feature"},{"geometry":{"coordinates":[30.350662,59.943336],"type":"Point"},"properties":{"id":225103381501,"name":"Mr. Bo","quantile":0.3434343434,"weight1":1,"weight2":0.2471861472},"type":"Feature"},{"geometry":{"coordinates":[30.312743,59.965371],"type":"Point"},"properties":{"id":124919159076,"name":"Буше","quantile":0.3468013468,"weight1":1,"weight2":0.2486291486},"type":"Feature"},{"geometry":{"coordinates":[30.296721,59.914331],"type":"Point"},"properties":{"id":123157911075,"name":"F11","quantile":0.3501683502,"weight1":1,"weight2":0.2500721501},"type":"Feature"},{"geometry":{"coordinates":[30.361952,59.93883],"type":"Point"},"properties":{"id":1020134742,"name":"Пузата хата","quantile":0.3535353535,"weight1":1,"weight2":0.2515151515},"type":"Feature"},{"geometry":{"coordinates":[30.307858,59.934514],"type":"Point"},"properties":{"id":1170202886,"name":"Percorso","quantile":0.3569023569,"weight1":1,"weight2":0.252958153},"type":"Feature"},{"geometry":{"coordinates":[30.305194,59.948933],"type":"Point"},"properties":{"id":109030367657,"name":"Мама Тута","quantile":0.3602693603,"weight1":1,"weight2":0.2544011544},"type":"Feature"},{"geometry":{"coordinates":[30.301538,59.949567],"type":"Point"},"properties":{"id":207156969625,"name":"Recolte","quantile":0.3636363636,"weight1":1,"weight2":0.2558441558},"type":"Feature"},{"geometry":{"coordinates":[30.344886,59.939125],"type":"Point"},"properties":{"id":1020329037,"name":"Тан Жен","quantile":0.367003367,"weight1":1,"weight2":0.2572871573},"type":"Feature"},{"geometry":{"coordinates":[30.346417,59.919062],"type":"Point"},"properties":{"id":49685443118,"name":"Dolphinwolf","quantile":0.3703703704,"weight1":1,"weight2":0.2587301587},"type":"Feature"},{"geometry":{"coordinates":[30.261046,59.974447],"type":"Point"},"properties":{"id":1046329109,"name":"Марсельеза","quantile":0.3737373737,"weight1":1,"weight2":0.2601731602},"type":"Feature"},{"geometry":{"coordinates":[30.342404,59.935445],"type":"Point"},"properties":{"id":65634770557,"name":"Песнь моряка","quantile":0.3771043771,"weight1":1,"weight2":0.2616161616},"type":"Feature"},{"geometry":{"coordinates":[30.335151,59.936336],"type":"Point"},"properties":{"id":1119666550,"name":"Little Italy","quantile":0.3804713805,"weight1":1,"weight2":0.2630591631},"type":"Feature"},{"geometry":{"coordinates":[30.353902,59.929488],"type":"Point"},"properties":{"id":1132628143,"name":"Marius","quantile":0.3838383838,"weight1":1,"weight2":0.2645021645},"type":"Feature"},{"geometry":{"coordinates":[30.296877,59.923895],"type":"Point"},"properties":{"id":6802887653,"name":"Лендок","quantile":0.3872053872,"weight1":1,"weight2":0.2659451659},"type":"Feature"},{"geometry":{"coordinates":[30.32686,59.973645],"type":"Point"},"properties":{"id":102499022736,"name":"Нихао Москва-Пекин","quantile":0.3905723906,"weight1":1,"weight2":0.2673881674},"type":"Feature"},{"geometry":{"coordinates":[30.345466,59.94181],"type":"Point"},"properties":{"id":136914261821,"name":"BroS BurritoS","quantile":0.3939393939,"weight1":1,"weight2":0.2688311688},"type":"Feature"},{"geometry":{"coordinates":[30.350819,59.943922],"type":"Point"},"properties":{"id":40571415653,"name":"Birch","quantile":0.3973063973,"weight1":1,"weight2":0.2702741703},"type":"Feature"},{"geometry":{"coordinates":[30.145051,59.85354],"type":"Point"},"properties":{"id":82952039259,"name":"Наш город","quantile":0.4006734007,"weight1":1,"weight2":0.2717171717},"type":"Feature"},{"geometry":{"coordinates":[30.357673,59.935676],"type":"Point"},"properties":{"id":23469342224,"name":"Лодка","quantile":0.404040404,"weight1":1,"weight2":0.2731601732},"type":"Feature"},{"geometry":{"coordinates":[30.354909,59.937619],"type":"Point"},"properties":{"id":1230263737,"name":"Brimborium","quantile":0.4074074074,"weight1":1,"weight2":0.2746031746},"type":"Feature"},{"geometry":{"coordinates":[30.34947,59.94511],"type":"Point"},"properties":{"id":84477490360,"name":"Moro Gastrobar","quantile":0.4107744108,"weight1":1,"weight2":0.276046176},"type":"Feature"},{"geometry":{"coordinates":[30.285827,59.964229],"type":"Point"},"properties":{"id":99745758192,"name":"Грин 28","quantile":0.4141414141,"weight1":1,"weight2":0.2774891775},"type":"Feature"},{"geometry":{"coordinates":[30.343628,59.958321],"type":"Point"},"properties":{"id":1046333626,"name":"Douglas","quantile":0.4175084175,"weight1":1,"weight2":0.2789321789},"type":"Feature"},{"geometry":{"coordinates":[30.323843,59.940138],"type":"Point"},"properties":{"id":1009687376,"name":"Mollie's Mews","quantile":0.4208754209,"weight1":1,"weight2":0.2803751804},"type":"Feature"},{"geometry":{"coordinates":[30.343106,59.927246],"type":"Point"},"properties":{"id":9799669970,"name":"Subzero","quantile":0.4242424242,"weight1":1,"weight2":0.2818181818},"type":"Feature"},{"geometry":{"coordinates":[30.306324,59.961613],"type":"Point"},"properties":{"id":1245575149,"name":"Red. Steak&Wine","quantile":0.4276094276,"weight1":1,"weight2":0.2832611833},"type":"Feature"},{"geometry":{"coordinates":[30.283989,59.938796],"type":"Point"},"properties":{"id":108767771510,"name":"Римски","quantile":0.430976431,"weight1":1,"weight2":0.2847041847},"type":"Feature"},{"geometry":{"coordinates":[30.321828,59.875626],"type":"Point"},"properties":{"id":1038200758,"name":"Vino di Vino","quantile":0.4343434343,"weight1":1,"weight2":0.2861471861},"type":"Feature"},{"geometry":{"coordinates":[30.357059,59.926827],"type":"Point"},"properties":{"id":52844090120,"name":"McClane","quantile":0.4377104377,"weight1":1,"weight2":0.2875901876},"type":"Feature"},{"geometry":{"coordinates":[30.368267,59.945836],"type":"Point"},"properties":{"id":1322560802,"name":"Блок","quantile":0.4410774411,"weight1":1,"weight2":0.289033189},"type":"Feature"},{"geometry":{"coordinates":[30.35646,59.936735],"type":"Point"},"properties":{"id":110121428689,"name":"Nama","quantile":0.4444444444,"weight1":1,"weight2":0.2904761905},"type":"Feature"},{"geometry":{"coordinates":[30.295117,59.922418],"type":"Point"},"properties":{"id":43110780638,"name":"Aster Bakery","quantile":0.4478114478,"weight1":1,"weight2":0.2919191919},"type":"Feature"},{"geometry":{"coordinates":[30.315032,59.973393],"type":"Point"},"properties":{"id":153699302980,"name":"Medici Italian bistro","quantile":0.4511784512,"weight1":1,"weight2":0.2933621934},"type":"Feature"},{"geometry":{"coordinates":[30.345518,59.931379],"type":"Point"},"properties":{"id":1337286706,"name":"Ватерлоо","quantile":0.4545454545,"weight1":1,"weight2":0.2948051948},"type":"Feature"},{"geometry":{"coordinates":[30.355092,59.940807],"type":"Point"},"properties":{"id":234320199712,"name":"Заря","quantile":0.4579124579,"weight1":1,"weight2":0.2962481962},"type":"Feature"},{"geometry":{"coordinates":[30.323836,59.927426],"type":"Point"},"properties":{"id":1200263447,"name":"Bier König","quantile":0.4612794613,"weight1":1,"weight2":0.2976911977},"type":"Feature"},{"geometry":{"coordinates":[30.309266,59.964456],"type":"Point"},"properties":{"id":64845255454,"name":"Tétto Italian Bistro","quantile":0.4646464646,"weight1":1,"weight2":0.2991341991},"type":"Feature"},{"geometry":{"coordinates":[30.357066,59.938748],"type":"Point"},"properties":{"id":112398534421,"name":"Цветочки","quantile":0.468013468,"weight1":1,"weight2":0.3005772006},"type":"Feature"},{"geometry":{"coordinates":[30.360742,59.939602],"type":"Point"},"properties":{"id":64362707230,"name":"Пивная диета","quantile":0.4713804714,"weight1":1,"weight2":0.302020202},"type":"Feature"},{"geometry":{"coordinates":[30.352247,59.925697],"type":"Point"},"properties":{"id":1249648726,"name":"Бристоль Паб","quantile":0.4747474747,"weight1":1,"weight2":0.3034632035},"type":"Feature"},{"geometry":{"coordinates":[30.319026,59.930663],"type":"Point"},"properties":{"id":70942487089,"name":"I'm Thankful For Today","quantile":0.4781144781,"weight1":1,"weight2":0.3049062049},"type":"Feature"},{"geometry":{"coordinates":[30.309977,59.964675],"type":"Point"},"properties":{"id":1168584773,"name":"Счастье","quantile":0.4814814815,"weight1":1,"weight2":0.3063492063},"type":"Feature"},{"geometry":{"coordinates":[30.335757,59.935981],"type":"Point"},"properties":{"id":238185181148,"name":"Avocado Queen","quantile":0.4848484848,"weight1":1,"weight2":0.3077922078},"type":"Feature"},{"geometry":{"coordinates":[30.361707,59.941578],"type":"Point"},"properties":{"id":44516363182,"name":"Juan Cantina Espanola","quantile":0.4882154882,"weight1":1,"weight2":0.3092352092},"type":"Feature"},{"geometry":{"coordinates":[30.336471,59.936978],"type":"Point"},"properties":{"id":203766098201,"name":"Paloma Cantina","quantile":0.4915824916,"weight1":1,"weight2":0.3106782107},"type":"Feature"},{"geometry":{"coordinates":[30.359661,59.947533],"type":"Point"},"properties":{"id":76556393366,"name":"Евразия","quantile":0.4949494949,"weight1":1,"weight2":0.3121212121},"type":"Feature"},{"geometry":{"coordinates":[30.313784,59.92554],"type":"Point"},"properties":{"id":124084146598,"name":"Тоскана гриль","quantile":0.4983164983,"weight1":1,"weight2":0.3135642136},"type":"Feature"},{"geometry":{"coordinates":[30.343463,59.938725],"type":"Point"},"properties":{"id":205155748378,"name":"Salone pasta&bar","quantile":0.5016835017,"weight1":1,"weight2":0.315007215},"type":"Feature"},{"geometry":{"coordinates":[30.340074,59.933903],"type":"Point"},"properties":{"id":150663168055,"name":"Иван да Марья","quantile":0.5050505051,"weight1":1,"weight2":0.3164502165},"type":"Feature"},{"geometry":{"coordinates":[30.28406,59.939991],"type":"Point"},"properties":{"id":1042818239,"name":"Тан Жен","quantile":0.5084175084,"weight1":1,"weight2":0.3178932179},"type":"Feature"},{"geometry":{"coordinates":[30.322376,59.957286],"type":"Point"},"properties":{"id":57526886313,"name":"Amici","quantile":0.5117845118,"weight1":1,"weight2":0.3193362193},"type":"Feature"},{"geometry":{"coordinates":[30.300434,59.967102],"type":"Point"},"properties":{"id":27751257722,"name":"Арден","quantile":0.5151515152,"weight1":1,"weight2":0.3207792208},"type":"Feature"},{"geometry":{"coordinates":[30.371277,59.930628],"type":"Point"},"properties":{"id":1258672059,"name":"Бакунин","quantile":0.5185185185,"weight1":1,"weight2":0.3222222222},"type":"Feature"},{"geometry":{"coordinates":[30.358412,59.939435],"type":"Point"},"properties":{"id":10838836791,"name":"Spontan","quantile":0.5218855219,"weight1":1,"weight2":0.3236652237},"type":"Feature"},{"geometry":{"coordinates":[30.314556,59.966607],"type":"Point"},"properties":{"id":1125962812,"name":"Чеховъ","quantile":0.5252525253,"weight1":1,"weight2":0.3251082251},"type":"Feature"},{"geometry":{"coordinates":[30.342831,59.927703],"type":"Point"},"properties":{"id":241608948782,"name":"The Sizzle","quantile":0.5286195286,"weight1":1,"weight2":0.3265512266},"type":"Feature"},{"geometry":{"coordinates":[30.309224,59.957897],"type":"Point"},"properties":{"id":1306735641,"name":"RoseMary","quantile":0.531986532,"weight1":1,"weight2":0.327994228},"type":"Feature"},{"geometry":{"coordinates":[30.357259,59.946636],"type":"Point"},"properties":{"id":167220227597,"name":"Mill","quantile":0.5353535354,"weight1":1,"weight2":0.3294372294},"type":"Feature"},{"geometry":{"coordinates":[30.343874,59.929197],"type":"Point"},"properties":{"id":190873444061,"name":"Hunt","quantile":0.5387205387,"weight1":1,"weight2":0.3308802309},"type":"Feature"},{"geometry":{"coordinates":[30.322376,59.933325],"type":"Point"},"properties":{"id":160475139002,"name":"Manneken Pis","quantile":0.5420875421,"weight1":1,"weight2":0.3323232323},"type":"Feature"},{"geometry":{"coordinates":[30.351729,59.94423],"type":"Point"},"properties":{"id":1139174868,"name":"Duo","quantile":0.5454545455,"weight1":1,"weight2":0.3337662338},"type":"Feature"},{"geometry":{"coordinates":[30.321624,59.858717],"type":"Point"},"properties":{"id":141577759365,"name":"Смоки Бонс","quantile":0.5488215488,"weight1":1,"weight2":0.3352092352},"type":"Feature"},{"geometry":{"coordinates":[30.319911,59.930044],"type":"Point"},"properties":{"id":1416160133,"name":"Rockets & Bishops","quantile":0.5521885522,"weight1":1,"weight2":0.3366522367},"type":"Feature"},{"geometry":{"coordinates":[30.370496,59.937948],"type":"Point"},"properties":{"id":175782474551,"name":"Civil","quantile":0.5555555556,"weight1":1,"weight2":0.3380952381},"type":"Feature"},{"geometry":{"coordinates":[30.333647,60.049753],"type":"Point"},"properties":{"id":2796127227,"name":"Molly Malone","quantile":0.5589225589,"weight1":1,"weight2":0.3395382395},"type":"Feature"},{"geometry":{"coordinates":[30.302817,59.961568],"type":"Point"},"properties":{"id":75537620229,"name":"Tapas&Bar","quantile":0.5622895623,"weight1":1,"weight2":0.340981241},"type":"Feature"},{"geometry":{"coordinates":[30.347104,59.932572],"type":"Point"},"properties":{"id":151088189702,"name":"Брассерия Крик","quantile":0.5656565657,"weight1":1,"weight2":0.3424242424},"type":"Feature"},{"geometry":{"coordinates":[30.311109,59.931824],"type":"Point"},"properties":{"id":180554432330,"name":"Sixty Four","quantile":0.569023569,"weight1":1,"weight2":0.3438672439},"type":"Feature"},{"geometry":{"coordinates":[30.369952,59.928978],"type":"Point"},"properties":{"id":1022496413,"name":"Harat’s pub","quantile":0.5723905724,"weight1":1,"weight2":0.3453102453},"type":"Feature"},{"geometry":{"coordinates":[30.340758,59.93012],"type":"Point"},"properties":{"id":111638973647,"name":"Bistrot Le Moujik","quantile":0.5757575758,"weight1":1,"weight2":0.3467532468},"type":"Feature"},{"geometry":{"coordinates":[29.98427,60.124898],"type":"Point"},"properties":{"id":1002023701,"name":"Рыба на даче","quantile":0.5791245791,"weight1":1,"weight2":0.3481962482},"type":"Feature"},{"geometry":{"coordinates":[30.30153,59.949543],"type":"Point"},"properties":{"id":177439196450,"name":"Harvest","quantile":0.5824915825,"weight1":1,"weight2":0.3496392496},"type":"Feature"},{"geometry":{"coordinates":[30.317634,59.959271],"type":"Point"},"properties":{"id":45560676704,"name":"Сулико","quantile":0.5858585859,"weight1":1,"weight2":0.3510822511},"type":"Feature"},{"geometry":{"coordinates":[30.308682,59.969327],"type":"Point"},"properties":{"id":16001597395,"name":"Мона","quantile":0.5892255892,"weight1":1,"weight2":0.3525252525},"type":"Feature"},{"geometry":{"coordinates":[30.374206,59.937581],"type":"Point"},"properties":{"id":1188440090,"name":"Кроо кафе","quantile":0.5925925926,"weight1":1,"weight2":0.353968254},"type":"Feature"},{"geometry":{"coordinates":[30.372623,59.930179],"type":"Point"},"properties":{"id":1265503173,"name":"Mad Espresso Team","quantile":0.595959596,"weight1":1,"weight2":0.3554112554},"type":"Feature"},{"geometry":{"coordinates":[30.303152,59.922551],"type":"Point"},"properties":{"id":142938838513,"name":"Entree","quantile":0.5993265993,"weight1":1,"weight2":0.3568542569},"type":"Feature"},{"geometry":{"coordinates":[30.30837,59.927625],"type":"Point"},"properties":{"id":1780063131,"name":"Все твои друзья","quantile":0.6026936027,"weight1":1,"weight2":0.3582972583},"type":"Feature"},{"geometry":{"coordinates":[30.277018,59.964032],"type":"Point"},"properties":{"id":186824743252,"name":"Frantsuza Bistrot","quantile":0.6060606061,"weight1":1,"weight2":0.3597402597},"type":"Feature"},{"geometry":{"coordinates":[30.284311,59.938482],"type":"Point"},"properties":{"id":181170188642,"name":"Prostovino Wine Can Dance","quantile":0.6094276094,"weight1":1,"weight2":0.3611832612},"type":"Feature"},{"geometry":{"coordinates":[30.358944,59.937552],"type":"Point"},"properties":{"id":77165214436,"name":"Утопист","quantile":0.6127946128,"weight1":1,"weight2":0.3626262626},"type":"Feature"},{"geometry":{"coordinates":[30.369552,59.929935],"type":"Point"},"properties":{"id":60951527439,"name":"Friends of Friends","quantile":0.6161616162,"weight1":1,"weight2":0.3640692641},"type":"Feature"},{"geometry":{"coordinates":[30.307149,59.955978],"type":"Point"},"properties":{"id":1390194327,"name":"Ясли","quantile":0.6195286195,"weight1":1,"weight2":0.3655122655},"type":"Feature"},{"geometry":{"coordinates":[30.361295,59.932238],"type":"Point"},"properties":{"id":180496180895,"name":"Цунами","quantile":0.6228956229,"weight1":1,"weight2":0.366955267},"type":"Feature"},{"geometry":{"coordinates":[30.342839,59.936847],"type":"Point"},"properties":{"id":1200023441,"name":"Мечтатели","quantile":0.6262626263,"weight1":1,"weight2":0.3683982684},"type":"Feature"},{"geometry":{"coordinates":[30.348383,59.92285],"type":"Point"},"properties":{"id":1675461701,"name":"Umami Ramen","quantile":0.6296296296,"weight1":1,"weight2":0.3698412698},"type":"Feature"},{"geometry":{"coordinates":[30.353203,59.936078],"type":"Point"},"properties":{"id":115840417773,"name":"Holy Ribs","quantile":0.632996633,"weight1":1,"weight2":0.3712842713},"type":"Feature"},{"geometry":{"coordinates":[30.267607,59.911442],"type":"Point"},"properties":{"id":100295104171,"name":"Solaris lab","quantile":0.6363636364,"weight1":1,"weight2":0.3727272727},"type":"Feature"},{"geometry":{"coordinates":[30.345608,59.938141],"type":"Point"},"properties":{"id":1684519931,"name":"Pinch","quantile":0.6397306397,"weight1":1,"weight2":0.3741702742},"type":"Feature"},{"geometry":{"coordinates":[30.361539,59.935684],"type":"Point"},"properties":{"id":180000009282,"name":"FeelingWine'S by Чувство Вина","quantile":0.6430976431,"weight1":1,"weight2":0.3756132756},"type":"Feature"},{"geometry":{"coordinates":[30.358336,59.935759],"type":"Point"},"properties":{"id":1310278733,"name":"Пицца 22 сантиметра","quantile":0.6464646465,"weight1":1,"weight2":0.3770562771},"type":"Feature"},{"geometry":{"coordinates":[30.267493,59.911169],"type":"Point"},"properties":{"id":37661452382,"name":"Af Brew Taproom","quantile":0.6498316498,"weight1":1,"weight2":0.3784992785},"type":"Feature"},{"geometry":{"coordinates":[30.347237,59.938359],"type":"Point"},"properties":{"id":219363151394,"name":"Whitley Neill","quantile":0.6531986532,"weight1":1,"weight2":0.3799422799},"type":"Feature"},{"geometry":{"coordinates":[30.340875,59.935404],"type":"Point"},"properties":{"id":227625577391,"name":"Mon Chouchou","quantile":0.6565656566,"weight1":1,"weight2":0.3813852814},"type":"Feature"},{"geometry":{"coordinates":[30.304529,59.96012],"type":"Point"},"properties":{"id":124911605504,"name":"Модерна Прошуттерия","quantile":0.6599326599,"weight1":1,"weight2":0.3828282828},"type":"Feature"},{"geometry":{"coordinates":[30.324533,59.939073],"type":"Point"},"properties":{"id":8038300592,"name":"Brisket","quantile":0.6632996633,"weight1":1,"weight2":0.3842712843},"type":"Feature"},{"geometry":{"coordinates":[30.326047,59.92568],"type":"Point"},"properties":{"id":1285946776,"name":"Порто Мальтезе","quantile":0.6666666667,"weight1":1,"weight2":0.3857142857},"type":"Feature"},{"geometry":{"coordinates":[30.353823,59.929392],"type":"Point"},"properties":{"id":228033496901,"name":"Литтл Сицили","quantile":0.67003367,"weight1":1,"weight2":0.3871572872},"type":"Feature"},{"geometry":{"coordinates":[30.298181,59.957992],"type":"Point"},"properties":{"id":107699853215,"name":"Grecco","quantile":0.6734006734,"weight1":1,"weight2":0.3886002886},"type":"Feature"},{"geometry":{"coordinates":[30.3104,59.933175],"type":"Point"},"properties":{"id":228924388161,"name":"Made In China","quantile":0.6767676768,"weight1":1,"weight2":0.39004329},"type":"Feature"},{"geometry":{"coordinates":[30.360081,59.936868],"type":"Point"},"properties":{"id":161499699678,"name":"Giallo","quantile":0.6801346801,"weight1":1,"weight2":0.3914862915},"type":"Feature"},{"geometry":{"coordinates":[30.341123,59.934728],"type":"Point"},"properties":{"id":186563173695,"name":"Бахус","quantile":0.6835016835,"weight1":1,"weight2":0.3929292929},"type":"Feature"},{"geometry":{"coordinates":[30.338065,59.929907],"type":"Point"},"properties":{"id":1365691770,"name":"Эривань","quantile":0.6868686869,"weight1":1,"weight2":0.3943722944},"type":"Feature"},{"geometry":{"coordinates":[30.363415,59.941282],"type":"Point"},"properties":{"id":25031157563,"name":"Self Edge Japanese","quantile":0.6902356902,"weight1":1,"weight2":0.3958152958},"type":"Feature"},{"geometry":{"coordinates":[30.338089,59.937202],"type":"Point"},"properties":{"id":89721358119,"name":"Панорамный ресторан Sky & Garden","quantile":0.6936026936,"weight1":1,"weight2":0.3972582973},"type":"Feature"},{"geometry":{"coordinates":[30.361691,59.94138],"type":"Point"},"properties":{"id":224542522414,"name":"Joli Grand Bistrot","quantile":0.696969697,"weight1":1,"weight2":0.3987012987},"type":"Feature"},{"geometry":{"coordinates":[30.353238,59.939711],"type":"Point"},"properties":{"id":12555153917,"name":"Giro","quantile":0.7003367003,"weight1":1,"weight2":0.4037037037},"type":"Feature"},{"geometry":{"coordinates":[30.322101,59.933044],"type":"Point"},"properties":{"id":1177951211,"name":"The Office Pub","quantile":0.7037037037,"weight1":1,"weight2":0.4407407407},"type":"Feature"},{"geometry":{"coordinates":[30.302601,59.963096],"type":"Point"},"properties":{"id":1112483895,"name":"Lestr Bar","quantile":0.7070707071,"weight1":1,"weight2":0.4777777778},"type":"Feature"},{"geometry":{"coordinates":[30.333991,59.935991],"type":"Point"},"properties":{"id":85606236158,"name":"Счастье","quantile":0.7104377104,"weight1":1,"weight2":0.5148148148},"type":"Feature"},{"geometry":{"coordinates":[30.320823,59.96238],"type":"Point"},"properties":{"id":163150154543,"name":"Ripasso","quantile":0.7138047138,"weight1":1,"weight2":0.5518518519},"type":"Feature"},{"geometry":{"coordinates":[30.370489,59.938124],"type":"Point"},"properties":{"id":64204488020,"name":"Невинный бар","quantile":0.7171717172,"weight1":1,"weight2":0.5888888889},"type":"Feature"},{"geometry":{"coordinates":[30.350389,59.939156],"type":"Point"},"properties":{"id":206654798246,"name":"The Red Corner","quantile":0.7205387205,"weight1":1,"weight2":0.6259259259},"type":"Feature"},{"geometry":{"coordinates":[30.359311,59.938072],"type":"Point"},"properties":{"id":1269716763,"name":"Do Immigration","quantile":0.7239057239,"weight1":1,"weight2":0.662962963},"type":"Feature"},{"geometry":{"coordinates":[30.310613,59.964721],"type":"Point"},"properties":{"id":6285699797,"name":"Civil","quantile":0.7272727273,"weight1":1,"weight2":0.7},"type":"Feature"},{"geometry":{"coordinates":[30.313146,59.934312],"type":"Point"},"properties":{"id":149183605547,"name":"Jerome","quantile":0.7306397306,"weight1":1,"weight2":0.737037037},"type":"Feature"},{"geometry":{"coordinates":[30.290352,59.962354],"type":"Point"},"properties":{"id":180934398910,"name":"Porto 19","quantile":0.734006734,"weight1":1,"weight2":0.7740740741},"type":"Feature"},{"geometry":{"coordinates":[30.239476,59.924806],"type":"Point"},"properties":{"id":54179435366,"name":"Мачты","quantile":0.7373737374,"weight1":1,"weight2":0.8111111111},"type":"Feature"},{"geometry":{"coordinates":[30.366083,59.940036],"type":"Point"},"properties":{"id":1736371961,"name":"Тартарбар","quantile":0.7407407407,"weight1":1,"weight2":0.8481481481},"type":"Feature"},{"geometry":{"coordinates":[30.367731,59.938416],"type":"Point"},"properties":{"id":85813194898,"name":"Хоровод","quantile":0.7441077441,"weight1":1,"weight2":0.8851851852},"type":"Feature"},{"geometry":{"coordinates":[30.322804,59.933302],"type":"Point"},"properties":{"id":3347932393,"name":"Сулико","quantile":0.7474747475,"weight1":1,"weight2":0.9222222222},"type":"Feature"},{"geometry":{"coordinates":[30.307525,59.93522],"type":"Point"},"properties":{"id":183258556833,"name":"Xander","quantile":0.7508417508,"weight1":1,"weight2":0.9501683502},"type":"Feature"},{"geometry":{"coordinates":[30.297466,59.932606],"type":"Point"},"properties":{"id":1221344438,"name":"Русская рюмочная № 1","quantile":0.7542087542,"weight1":1,"weight2":0.9508417508},"type":"Feature"},{"geometry":{"coordinates":[30.355096,59.940114],"type":"Point"},"properties":{"id":1523954752,"name":"Полторы комнаты","quantile":0.7575757576,"weight1":1,"weight2":0.9515151515},"type":"Feature"},{"geometry":{"coordinates":[30.34763,59.94374],"type":"Point"},"properties":{"id":148665613777,"name":"Meal","quantile":0.7609427609,"weight1":1,"weight2":0.9521885522},"type":"Feature"},{"geometry":{"coordinates":[30.325654,59.926211],"type":"Point"},"properties":{"id":1049721583,"name":"Тан Жен","quantile":0.7643097643,"weight1":1,"weight2":0.9528619529},"type":"Feature"},{"geometry":{"coordinates":[30.300106,59.93339],"type":"Point"},"properties":{"id":1352668036,"name":"Stroganoff Steak House","quantile":0.7676767677,"weight1":1,"weight2":0.9535353535},"type":"Feature"},{"geometry":{"coordinates":[30.347126,59.933629],"type":"Point"},"properties":{"id":51133035864,"name":"Tagliatella Caffé","quantile":0.771043771,"weight1":1,"weight2":0.9542087542},"type":"Feature"},{"geometry":{"coordinates":[30.353104,59.938808],"type":"Point"},"properties":{"id":125473780030,"name":"Тихоходка","quantile":0.7744107744,"weight1":1,"weight2":0.9548821549},"type":"Feature"},{"geometry":{"coordinates":[30.352764,59.939729],"type":"Point"},"properties":{"id":240113441861,"name":"Le Courage","quantile":0.7777777778,"weight1":1,"weight2":0.9555555556},"type":"Feature"},{"geometry":{"coordinates":[30.346029,59.938147],"type":"Point"},"properties":{"id":5527251040,"name":"Mercado","quantile":0.7811447811,"weight1":1,"weight2":0.9562289562},"type":"Feature"},{"geometry":{"coordinates":[30.310852,59.923988],"type":"Point"},"properties":{"id":90464749783,"name":"Perbacco","quantile":0.7845117845,"weight1":1,"weight2":0.9569023569},"type":"Feature"},{"geometry":{"coordinates":[30.370379,59.93864],"type":"Point"},"properties":{"id":228633125544,"name":"Betulla","quantile":0.7878787879,"weight1":1,"weight2":0.9575757576},"type":"Feature"},{"geometry":{"coordinates":[30.377945,59.938096],"type":"Point"},"properties":{"id":202901296381,"name":"Чечил","quantile":0.7912457912,"weight1":1,"weight2":0.9582491582},"type":"Feature"},{"geometry":{"coordinates":[30.355586,59.945394],"type":"Point"},"properties":{"id":227768256190,"name":"Казбеги","quantile":0.7946127946,"weight1":1,"weight2":0.9589225589},"type":"Feature"},{"geometry":{"coordinates":[30.336358,59.92922],"type":"Point"},"properties":{"id":121642161262,"name":"Top Hops","quantile":0.797979798,"weight1":1,"weight2":0.9595959596},"type":"Feature"},{"geometry":{"coordinates":[30.341816,59.945039],"type":"Point"},"properties":{"id":1085508806,"name":"Chez Jules","quantile":0.8013468013,"weight1":1,"weight2":0.9602693603},"type":"Feature"},{"geometry":{"coordinates":[30.348901,59.936144],"type":"Point"},"properties":{"id":81623632027,"name":"Bao Mochi","quantile":0.8047138047,"weight1":1,"weight2":0.9609427609},"type":"Feature"},{"geometry":{"coordinates":[30.348664,59.938481],"type":"Point"},"properties":{"id":1472652013,"name":"Траттория Лимончелло","quantile":0.8080808081,"weight1":1,"weight2":0.9616161616},"type":"Feature"},{"geometry":{"coordinates":[30.318257,59.969079],"type":"Point"},"properties":{"id":1704778653,"name":"BeefZavod","quantile":0.8114478114,"weight1":1,"weight2":0.9622895623},"type":"Feature"},{"geometry":{"coordinates":[30.346906,59.938163],"type":"Point"},"properties":{"id":1764293443,"name":"Terminal","quantile":0.8148148148,"weight1":1,"weight2":0.962962963},"type":"Feature"},{"geometry":{"coordinates":[30.323038,59.926285],"type":"Point"},"properties":{"id":147194077921,"name":"Белый налив","quantile":0.8181818182,"weight1":1,"weight2":0.9636363636},"type":"Feature"},{"geometry":{"coordinates":[30.346551,59.942658],"type":"Point"},"properties":{"id":156440023404,"name":"Пьяна Ель","quantile":0.8215488215,"weight1":1,"weight2":0.9643097643},"type":"Feature"},{"geometry":{"coordinates":[30.321948,59.932504],"type":"Point"},"properties":{"id":40700006153,"name":"Gills","quantile":0.8249158249,"weight1":1,"weight2":0.964983165},"type":"Feature"},{"geometry":{"coordinates":[30.360337,59.933171],"type":"Point"},"properties":{"id":134092812058,"name":"Сулико","quantile":0.8282828283,"weight1":1,"weight2":0.9656565657},"type":"Feature"},{"geometry":{"coordinates":[30.355512,59.939676],"type":"Point"},"properties":{"id":148744848608,"name":"Астер","quantile":0.8316498316,"weight1":1,"weight2":0.9663299663},"type":"Feature"},{"geometry":{"coordinates":[30.360604,59.935412],"type":"Point"},"properties":{"id":1393532306,"name":"Akyan","quantile":0.835016835,"weight1":1,"weight2":0.967003367},"type":"Feature"},{"geometry":{"coordinates":[30.364661,59.946242],"type":"Point"},"properties":{"id":153842916335,"name":"Дели Дарбар","quantile":0.8383838384,"weight1":1,"weight2":0.9676767677},"type":"Feature"},{"geometry":{"coordinates":[30.357933,59.938904],"type":"Point"},"properties":{"id":1764113162,"name":"Сидр и Нэнси","quantile":0.8417508418,"weight1":1,"weight2":0.9683501684},"type":"Feature"},{"geometry":{"coordinates":[30.407071,59.961839],"type":"Point"},"properties":{"id":52860773431,"name":"Парк","quantile":0.8451178451,"weight1":1,"weight2":0.969023569},"type":"Feature"},{"geometry":{"coordinates":[30.317162,59.96918],"type":"Point"},"properties":{"id":66481868109,"name":"Футура","quantile":0.8484848485,"weight1":1,"weight2":0.9696969697},"type":"Feature"},{"geometry":{"coordinates":[30.360159,59.937728],"type":"Point"},"properties":{"id":1537251338,"name":"Брюссель","quantile":0.8518518519,"weight1":1,"weight2":0.9703703704},"type":"Feature"},{"geometry":{"coordinates":[30.359734,59.939628],"type":"Point"},"properties":{"id":75561588090,"name":"Смена","quantile":0.8552188552,"weight1":1,"weight2":0.971043771},"type":"Feature"},{"geometry":{"coordinates":[30.352451,59.935849],"type":"Point"},"properties":{"id":161303987536,"name":"2Taco&Co","quantile":0.8585858586,"weight1":1,"weight2":0.9717171717},"type":"Feature"},{"geometry":{"coordinates":[30.311086,59.958517],"type":"Point"},"properties":{"id":10921083285,"name":"Ласточки","quantile":0.861952862,"weight1":1,"weight2":0.9723905724},"type":"Feature"},{"geometry":{"coordinates":[30.34847,59.945832],"type":"Point"},"properties":{"id":112718655330,"name":"Иль Миланезе","quantile":0.8653198653,"weight1":1,"weight2":0.9730639731},"type":"Feature"},{"geometry":{"coordinates":[30.324746,59.932464],"type":"Point"},"properties":{"id":1726053123,"name":"Стейк Хаус Meat","quantile":0.8686868687,"weight1":1,"weight2":0.9737373737},"type":"Feature"},{"geometry":{"coordinates":[30.347513,59.94642],"type":"Point"},"properties":{"id":1237206290,"name":"Вино и Вода","quantile":0.8720538721,"weight1":1,"weight2":0.9744107744},"type":"Feature"},{"geometry":{"coordinates":[30.344282,59.929824],"type":"Point"},"properties":{"id":1751826394,"name":"Smoke BBQ","quantile":0.8754208754,"weight1":1,"weight2":0.9750841751},"type":"Feature"},{"geometry":{"coordinates":[30.408667,59.958741],"type":"Point"},"properties":{"id":49812280613,"name":"Харатс","quantile":0.8787878788,"weight1":1,"weight2":0.9757575758},"type":"Feature"},{"geometry":{"coordinates":[30.30241,59.962837],"type":"Point"},"properties":{"id":68694333775,"name":"Проект ПС","quantile":0.8821548822,"weight1":1,"weight2":0.9764309764},"type":"Feature"},{"geometry":{"coordinates":[30.356958,59.938934],"type":"Point"},"properties":{"id":1298906349,"name":"Redrum","quantile":0.8855218855,"weight1":1,"weight2":0.9771043771},"type":"Feature"},{"geometry":{"coordinates":[30.36817,59.938371],"type":"Point"},"properties":{"id":18766618121,"name":"Animals","quantile":0.8888888889,"weight1":1,"weight2":0.9777777778},"type":"Feature"},{"geometry":{"coordinates":[30.276958,59.964214],"type":"Point"},"properties":{"id":10979543591,"name":"Saro","quantile":0.8922558923,"weight1":1,"weight2":0.9784511785},"type":"Feature"},{"geometry":{"coordinates":[30.345441,59.941404],"type":"Point"},"properties":{"id":1190048238,"name":"Сидрерия","quantile":0.8956228956,"weight1":1,"weight2":0.9791245791},"type":"Feature"},{"geometry":{"coordinates":[30.228467,59.84745],"type":"Point"},"properties":{"id":1478066880,"name":"Тан Жен","quantile":0.898989899,"weight1":1,"weight2":0.9797979798},"type":"Feature"},{"geometry":{"coordinates":[30.363435,59.941539],"type":"Point"},"properties":{"id":1237948124,"name":"Траппист","quantile":0.9023569024,"weight1":1,"weight2":0.9804713805},"type":"Feature"},{"geometry":{"coordinates":[30.362738,59.938806],"type":"Point"},"properties":{"id":1165804867,"name":"Оба Два","quantile":0.9057239057,"weight1":1,"weight2":0.9811447811},"type":"Feature"},{"geometry":{"coordinates":[30.350279,59.930023],"type":"Point"},"properties":{"id":102572164955,"name":"Hookah Box","quantile":0.9090909091,"weight1":1,"weight2":0.9818181818},"type":"Feature"},{"geometry":{"coordinates":[30.360143,59.937927],"type":"Point"},"properties":{"id":1494820891,"name":"Веселидзе","quantile":0.9124579125,"weight1":1,"weight2":0.9824915825},"type":"Feature"},{"geometry":{"coordinates":[30.308712,59.935716],"type":"Point"},"properties":{"id":1168186920,"name":"Tandoor","quantile":0.9158249158,"weight1":1,"weight2":0.9831649832},"type":"Feature"},{"geometry":{"coordinates":[30.312416,59.932073],"type":"Point"},"properties":{"id":1198808598,"name":"Oh! Mumbai","quantile":0.9191919192,"weight1":1,"weight2":0.9838383838},"type":"Feature"},{"geometry":{"coordinates":[30.358431,59.942323],"type":"Point"},"properties":{"id":114023039935,"name":"Мясонская ложа","quantile":0.9225589226,"weight1":1,"weight2":0.9845117845},"type":"Feature"},{"geometry":{"coordinates":[30.321566,59.931404],"type":"Point"},"properties":{"id":177140175053,"name":"Коммонс","quantile":0.9259259259,"weight1":1,"weight2":0.9851851852},"type":"Feature"},{"geometry":{"coordinates":[30.349208,59.928929],"type":"Point"},"properties":{"id":1162432111,"name":"Ringo Bells","quantile":0.9292929293,"weight1":1,"weight2":0.9858585859},"type":"Feature"},{"geometry":{"coordinates":[30.322551,59.938484],"type":"Point"},"properties":{"id":24181923986,"name":"Ezo Izakaya","quantile":0.9326599327,"weight1":1,"weight2":0.9865319865},"type":"Feature"},{"geometry":{"coordinates":[30.364339,59.940063],"type":"Point"},"properties":{"id":154210007652,"name":"Bourgeois Bohemians","quantile":0.936026936,"weight1":1,"weight2":0.9872053872},"type":"Feature"},{"geometry":{"coordinates":[30.302138,59.930298],"type":"Point"},"properties":{"id":151470398011,"name":"Ем","quantile":0.9393939394,"weight1":1,"weight2":0.9878787879},"type":"Feature"},{"geometry":{"coordinates":[30.340242,59.935508],"type":"Point"},"properties":{"id":56490932531,"name":"Prostovino","quantile":0.9427609428,"weight1":1,"weight2":0.9885521886},"type":"Feature"},{"geometry":{"coordinates":[30.337394,59.934812],"type":"Point"},"properties":{"id":52444855915,"name":"Хачапури тетушки Марико","quantile":0.9461279461,"weight1":1,"weight2":0.9892255892},"type":"Feature"},{"geometry":{"coordinates":[30.285739,59.962674],"type":"Point"},"properties":{"id":216224111040,"name":"Sight","quantile":0.9494949495,"weight1":1,"weight2":0.9898989899},"type":"Feature"},{"geometry":{"coordinates":[30.327626,59.942721],"type":"Point"},"properties":{"id":4894991268,"name":"Pame","quantile":0.9528619529,"weight1":1,"weight2":0.9905723906},"type":"Feature"},{"geometry":{"coordinates":[30.345935,59.932118],"type":"Point"},"properties":{"id":1276624334,"name":"Meat_Coin","quantile":0.9562289562,"weight1":1,"weight2":0.9912457912},"type":"Feature"},{"geometry":{"coordinates":[30.35307,59.936078],"type":"Point"},"properties":{"id":1180330450,"name":"Dead Poets","quantile":0.9595959596,"weight1":1,"weight2":0.9919191919},"type":"Feature"},{"geometry":{"coordinates":[30.363575,59.9379],"type":"Point"},"properties":{"id":19551807110,"name":"Прошуттерия","quantile":0.962962963,"weight1":1,"weight2":0.9925925926},"type":"Feature"},{"geometry":{"coordinates":[30.408781,59.953673],"type":"Point"},"properties":{"id":1251625070,"name":"Jager","quantile":0.9663299663,"weight1":1,"weight2":0.9932659933},"type":"Feature"},{"geometry":{"coordinates":[30.360602,59.936904],"type":"Point"},"properties":{"id":162571112362,"name":"Pasta Fresca","quantile":0.9696969697,"weight1":1,"weight2":0.9939393939},"type":"Feature"},{"geometry":{"coordinates":[30.342476,59.937751],"type":"Point"},"properties":{"id":46537552443,"name":"Blackchops","quantile":0.9730639731,"weight1":1,"weight2":0.9946127946},"type":"Feature"},{"geometry":{"coordinates":[30.420076,59.833731],"type":"Point"},"properties":{"id":1122566000,"name":"Тан Жен","quantile":0.9764309764,"weight1":1,"weight2":0.9952861953},"type":"Feature"},{"geometry":{"coordinates":[30.359132,59.9484],"type":"Point"},"properties":{"id":137298174745,"name":"Миндаль","quantile":0.9797979798,"weight1":1,"weight2":0.995959596},"type":"Feature"},{"geometry":{"coordinates":[30.353774,59.914191],"type":"Point"},"properties":{"id":230553694483,"name":"Тан Жен","quantile":0.9831649832,"weight1":1,"weight2":0.9966329966},"type":"Feature"},{"geometry":{"coordinates":[30.359175,59.935731],"type":"Point"},"properties":{"id":1153458764,"name":"Amarcord","quantile":0.9865319865,"weight1":1,"weight2":0.9973063973},"type":"Feature"},{"geometry":{"coordinates":[30.267517,59.911211],"type":"Point"},"properties":{"id":34833047722,"name":"All Grain","quantile":0.9898989899,"weight1":1,"weight2":0.997979798},"type":"Feature"},{"geometry":{"coordinates":[30.353332,59.943876],"type":"Point"},"properties":{"id":1145471358,"name":"Schengen","quantile":0.9932659933,"weight1":1,"weight2":0.9986531987},"type":"Feature"},{"geometry":{"coordinates":[30.358854,59.938018],"type":"Point"},"properties":{"id":154150137900,"name":"Camorra","quantile":0.9966329966,"weight1":1,"weight2":0.9993265993},"type":"Feature"},{"geometry":{"coordinates":[30.413413,59.955726],"type":"Point"},"properties":{"id":1767108364,"name":"Beer & cakes","quantile":1,"weight1":1,"weight2":1},"type":"Feature"}],"type":"FeatureCollection"}
